{
  "HAMILTON E HOLMES": {
    "stationID": "HAMILTON E HOLMES",
    "stationName": "Hamilton E Holmes",
    "destinations": {},
    "lat": 33.75452,
    "lon": -84.46982
  },
  "WEST LAKE": {
    "stationID": "WEST LAKE",
    "stationName": "West Lake",
    "destinations": {},
    "lat": 33.75325,
    "lon": -84.44557
  },
  "DUNWOODY": {
    "stationID": "DUNWOODY",
    "stationName": "Dunwoody",
    "destinations": {},
    "lat": 33.92097,
    "lon": -84.34473
  },
  "LINDBERGH CENTER": {
    "stationID": "LINDBERGH CENTER",
    "stationName": "Lindbergh Center",
    "destinations": {},
    "lat": 33.82345,
    "lon": -84.36932
  },
  "BROOKHAVEN-OGLETHORPE": {
    "stationID": "BROOKHAVEN-OGLETHORPE",
    "stationName": "Brookhaven Oglethorpe",
    "destinations": {},
    "lat": 33.85999,
    "lon": -84.3394
  },
  "ARTS CENTER": {
    "stationID": "ARTS CENTER",
    "stationName": "Arts Center",
    "destinations": {},
    "lat": 33.78928,
    "lon": -84.38712
  },
  "MIDTOWN ": {
    "stationID": "MIDTOWN ",
    "stationName": "Midtown ",
    "destinations": {},
    "lat": 33.78125,
    "lon": -84.38634
  },
  "MIDTOWN": {
    "stationID": "MIDTOWN",
    "stationName": "Midtown",
    "destinations": {},
    "lat": 33.78111,
    "lon": -84.3867
  },
  "EAST LAKE": {
    "stationID": "EAST LAKE",
    "stationName": "East Lake",
    "destinations": {
      "FIVE POINTS": {
        "trains": []
      },
      "HE HOLMES": {
        "trains": []
      },
      "INDIAN CREEK": {
        "trains": []
      }
    },
    "lat": 33.7652,
    "lon": -84.31343
  },
  "DECATUR": {
    "stationID": "DECATUR",
    "stationName": "Decatur",
    "destinations": {
      "FIVE POINTS": {
        "trains": []
      },
      "HE HOLMES": {
        "trains": []
      },
      "INDIAN CREEK": {
        "trains": []
      }
    },
    "lat": 33.77468,
    "lon": -84.29532
  },
  "CANDLER PARK": {
    "stationID": "CANDLER PARK",
    "stationName": "Candler Park",
    "destinations": {},
    "lat": 33.76187,
    "lon": -84.34046
  },
  "GEORGIA STATE": {
    "stationID": "GEORGIA STATE",
    "stationName": "Georgia State",
    "destinations": {},
    "lat": 33.75014,
    "lon": -84.38588
  },
  "EAST POINT": {
    "stationID": "EAST POINT",
    "stationName": "East Point",
    "destinations": {},
    "lat": 33.67657,
    "lon": -84.44046
  },
  "LAKEWOOD-FT MCPHERSON": {
    "stationID": "LAKEWOOD-FT MCPHERSON",
    "stationName": "Lakewood Ft Mcpherson",
    "destinations": {},
    "lat": 33.7003,
    "lon": -84.42887
  },
  "WEST END": {
    "stationID": "WEST END",
    "stationName": "West End",
    "destinations": {},
    "lat": 33.7359,
    "lon": -84.41354
  },
  "KENSINGTON": {
    "stationID": "KENSINGTON",
    "stationName": "Kensington",
    "destinations": {},
    "lat": 33.77247,
    "lon": -84.25224
  },
  "LENOX": {
    "stationID": "LENOX",
    "stationName": "Lenox",
    "destinations": {},
    "lat": 33.84524,
    "lon": -84.35801
  },
  "BUCKHEAD": {
    "stationID": "BUCKHEAD",
    "stationName": "Buckhead",
    "destinations": {},
    "lat": 33.84794,
    "lon": -84.36772
  },
  "BANKHEAD": {
    "stationID": "BANKHEAD",
    "stationName": "Bankhead",
    "destinations": {},
    "lat": 33.77262,
    "lon": -84.42897
  },
  "NORTH AVENUE": {
    "stationID": "NORTH AVENUE",
    "stationName": "North Avenue",
    "destinations": {},
    "lat": 33.77174,
    "lon": -84.3872
  },
  "HOWELL MILL RD @ KIPLING DR": {
    "stationID": "HOWELL MILL RD @ KIPLING DR",
    "stationName": "Howell Mill Rd @ Kipling Dr",
    "destinations": {},
    "lat": 33.81354,
    "lon": -84.41477
  },
  "DORAVILLE": {
    "stationID": "DORAVILLE",
    "stationName": "Doraville",
    "destinations": {},
    "lat": 33.90242,
    "lon": -84.28047
  },
  "MEDICAL CENTER": {
    "stationID": "MEDICAL CENTER",
    "stationName": "Medical Center",
    "destinations": {},
    "lat": 33.91057,
    "lon": -84.35121
  },
  "CIVIC CENTER": {
    "stationID": "CIVIC CENTER",
    "stationName": "Civic Center",
    "destinations": {},
    "lat": 33.76624,
    "lon": -84.3875
  },
  "VINE CITY": {
    "stationID": "VINE CITY",
    "stationName": "Vine City",
    "destinations": {},
    "lat": 33.75661,
    "lon": -84.40402
  },
  "ASHBY": {
    "stationID": "ASHBY",
    "stationName": "Ashby",
    "destinations": {},
    "lat": 33.75648,
    "lon": -84.41733
  },
  "OAKLAND CITY": {
    "stationID": "OAKLAND CITY",
    "stationName": "Oakland City",
    "destinations": {},
    "lat": 33.71741,
    "lon": -84.4263
  },
  "NORTH SPRINGS": {
    "stationID": "NORTH SPRINGS",
    "stationName": "North Springs",
    "destinations": {},
    "lat": 33.94495,
    "lon": -84.35728
  },
  "GWCC-CNN CENTER": {
    "stationID": "GWCC-CNN CENTER",
    "stationName": "Gwcc Cnn Center",
    "destinations": {},
    "lat": 33.75619,
    "lon": -84.39729
  },
  "FIVE POINTS": {
    "stationID": "FIVE POINTS",
    "stationName": "Five Points",
    "destinations": {},
    "lat": 33.7539,
    "lon": -84.39156
  },
  "KING MEMORIAL": {
    "stationID": "KING MEMORIAL",
    "stationName": "King Memorial",
    "destinations": {},
    "lat": 33.74998,
    "lon": -84.37588
  },
  "INMAN PARK-REYNOLDSTOWN": {
    "stationID": "INMAN PARK-REYNOLDSTOWN",
    "stationName": "Inman Park Reynoldstown",
    "destinations": {},
    "lat": 33.75723,
    "lon": -84.35307
  },
  "AVONDALE": {
    "stationID": "AVONDALE",
    "stationName": "Avondale",
    "destinations": {},
    "lat": 33.77521,
    "lon": -84.28247
  },
  "INDIAN CREEK": {
    "stationID": "INDIAN CREEK",
    "stationName": "Indian Creek",
    "destinations": {},
    "lat": 33.76989,
    "lon": -84.22987
  },
  "AIRPORT": {
    "stationID": "AIRPORT",
    "stationName": "Airport",
    "destinations": {},
    "lat": 33.64029,
    "lon": -84.4462
  },
  "COLLEGE PARK": {
    "stationID": "COLLEGE PARK",
    "stationName": "College Park",
    "destinations": {},
    "lat": 33.65028,
    "lon": -84.44861
  },
  "GARNETT": {
    "stationID": "GARNETT",
    "stationName": "Garnett",
    "destinations": {},
    "lat": 33.7487,
    "lon": -84.39574
  },
  "PEACHTREE CENTER": {
    "stationID": "PEACHTREE CENTER",
    "stationName": "Peachtree Center",
    "destinations": {},
    "lat": 33.75806,
    "lon": -84.38753
  },
  "CHAMBLEE": {
    "stationID": "CHAMBLEE",
    "stationName": "Chamblee",
    "destinations": {},
    "lat": 33.88752,
    "lon": -84.30636
  },
  "SANDY SPRINGS": {
    "stationID": "SANDY SPRINGS",
    "stationName": "Sandy Springs",
    "destinations": {},
    "lat": 33.93182,
    "lon": -84.35097
  },
  "N MAIN ST @ WINTHROPE PARK DR": {
    "stationID": "N MAIN ST @ WINTHROPE PARK DR",
    "stationName": "N Main St @ Winthrope Park Dr",
    "destinations": {},
    "lat": 34.08949,
    "lon": -84.29422
  },
  "N MAIN ST @ 379": {
    "stationID": "N MAIN ST @ 379",
    "stationName": "N Main St @ 379",
    "destinations": {},
    "lat": 34.08583,
    "lon": -84.29496
  },
  "N MAIN ST @ 301": {
    "stationID": "N MAIN ST @ 301",
    "stationName": "N Main St @ 301",
    "destinations": {},
    "lat": 34.08386,
    "lon": -84.29475
  },
  "N MAIN ST @ PINE GROVE DR": {
    "stationID": "N MAIN ST @ PINE GROVE DR",
    "stationName": "N Main St @ Pine Grove Dr",
    "destinations": {},
    "lat": 34.08248,
    "lon": -84.29505
  },
  "N MAIN ST @ MAYFIELD RD": {
    "stationID": "N MAIN ST @ MAYFIELD RD",
    "stationName": "N Main St @ Mayfield Rd",
    "destinations": {},
    "lat": 34.0804,
    "lon": -84.29444
  },
  "N MAIN ST @ CUMMING ST": {
    "stationID": "N MAIN ST @ CUMMING ST",
    "stationName": "N Main St @ Cumming St",
    "destinations": {},
    "lat": 34.07832,
    "lon": -84.29451
  },
  "N MAIN ST @ ACADEMY ST": {
    "stationID": "N MAIN ST @ ACADEMY ST",
    "stationName": "N Main St @ Academy St",
    "destinations": {},
    "lat": 34.0762,
    "lon": -84.29429
  },
  "N MAIN ST @ VAUGHAN DR": {
    "stationID": "N MAIN ST @ VAUGHAN DR",
    "stationName": "N Main St @ Vaughan Dr",
    "destinations": {},
    "lat": 34.09072,
    "lon": -84.29312
  },
  "WINDWARD PKWY @ DEERFIELD PKWY": {
    "stationID": "WINDWARD PKWY @ DEERFIELD PKWY",
    "stationName": "Windward Pkwy @ Deerfield Pkwy",
    "destinations": {},
    "lat": 34.08811,
    "lon": -84.27025
  },
  "WINDWARD PKWY @ 5530": {
    "stationID": "WINDWARD PKWY @ 5530",
    "stationName": "Windward Pkwy @ 5530",
    "destinations": {},
    "lat": 34.08727,
    "lon": -84.26601
  },
  "WINDWARD PKWY @ NORTH POINT PKWY": {
    "stationID": "WINDWARD PKWY @ NORTH POINT PKWY",
    "stationName": "Windward Pkwy @ North Point Pkwy",
    "destinations": {},
    "lat": 34.0886,
    "lon": -84.25711
  },
  "MARTIN L KING JR DR NW @ OLLIE ST NW": {
    "stationID": "MARTIN L KING JR DR NW @ OLLIE ST NW",
    "stationName": "Martin L King Jr Dr Nw @ Ollie St Nw",
    "destinations": {},
    "lat": 33.75481,
    "lon": -84.42119
  },
  "NORTH POINT PKY@900": {
    "stationID": "NORTH POINT PKY@900",
    "stationName": "North Point Pky@900",
    "destinations": {},
    "lat": 34.08083,
    "lon": -84.25948
  },
  "NORTH POINT PKY@960": {
    "stationID": "NORTH POINT PKY@960",
    "stationName": "North Point Pky@960",
    "destinations": {},
    "lat": 34.07841,
    "lon": -84.26024
  },
  "NORTH POINT PKY @ 960": {
    "stationID": "NORTH POINT PKY @ 960",
    "stationName": "North Point Pky @ 960",
    "destinations": {},
    "lat": 34.07816,
    "lon": -84.2607
  },
  "NORTH POINT PKY @ WEBB BRIDGE RD": {
    "stationID": "NORTH POINT PKY @ WEBB BRIDGE RD",
    "stationName": "North Point Pky @ Webb Bridge Rd",
    "destinations": {},
    "lat": 34.0764,
    "lon": -84.26046
  },
  "ATLANTA STUDENT MOVEMENT BLVD @ NORTHSIDE DR SW": {
    "stationID": "ATLANTA STUDENT MOVEMENT BLVD @ NORTHSIDE DR SW",
    "stationName": "Atlanta Student Movement Blvd @ Northside Dr Sw",
    "destinations": {},
    "lat": 33.74893,
    "lon": -84.40494
  },
  "DEERFIELD PKWY @ MORRIS RD": {
    "stationID": "DEERFIELD PKWY @ MORRIS RD",
    "stationName": "Deerfield Pkwy @ Morris Rd",
    "destinations": {},
    "lat": 34.08993,
    "lon": -84.26925
  },
  "WINDWARD PKWY @ JORDAN CT": {
    "stationID": "WINDWARD PKWY @ JORDAN CT",
    "stationName": "Windward Pkwy @ Jordan Ct",
    "destinations": {},
    "lat": 34.09228,
    "lon": -84.27648
  },
  "SR 9 @ WINDWARD PKWY": {
    "stationID": "SR 9 @ WINDWARD PKWY",
    "stationName": "Sr 9 @ Windward Pkwy",
    "destinations": {},
    "lat": 34.09459,
    "lon": -84.27797
  },
  "N MAIN ST @ COGBURN RD": {
    "stationID": "N MAIN ST @ COGBURN RD",
    "stationName": "N Main St @ Cogburn Rd",
    "destinations": {},
    "lat": 34.09229,
    "lon": -84.28419
  },
  "N MAIN ST @ 684": {
    "stationID": "N MAIN ST @ 684",
    "stationName": "N Main St @ 684",
    "destinations": {},
    "lat": 34.09214,
    "lon": -84.2885
  },
  "N MAIN ST @ WATER OAK PL": {
    "stationID": "N MAIN ST @ WATER OAK PL",
    "stationName": "N Main St @ Water Oak Pl",
    "destinations": {},
    "lat": 34.09193,
    "lon": -84.28861
  },
  "DEERFIELD PKWY @ TWO VERIZON PL": {
    "stationID": "DEERFIELD PKWY @ TWO VERIZON PL",
    "stationName": "Deerfield Pkwy @ Two Verizon Pl",
    "destinations": {},
    "lat": 34.09288,
    "lon": -84.2711
  },
  "DEERFIELD PKWY @ THREE VERIZON PL": {
    "stationID": "DEERFIELD PKWY @ THREE VERIZON PL",
    "stationName": "Deerfield Pkwy @ Three Verizon Pl",
    "destinations": {},
    "lat": 34.09559,
    "lon": -84.26861
  },
  "N MAIN ST @ WINDWARD PKY W": {
    "stationID": "N MAIN ST @ WINDWARD PKY W",
    "stationName": "N Main St @ Windward Pky W",
    "destinations": {},
    "lat": 34.09396,
    "lon": -84.27953
  },
  "OLD MILTON PKY @ BRIDGE POINTE DR": {
    "stationID": "OLD MILTON PKY @ BRIDGE POINTE DR",
    "stationName": "Old Milton Pky @ Bridge Pointe Dr",
    "destinations": {},
    "lat": 34.06256,
    "lon": -84.24747
  },
  "N MAIN ST @ HENDERSON PKWY": {
    "stationID": "N MAIN ST @ HENDERSON PKWY",
    "stationName": "N Main St @ Henderson Pkwy",
    "destinations": {},
    "lat": 34.09207,
    "lon": -84.28527
  },
  "N MAIN ST @ CANTON ST": {
    "stationID": "N MAIN ST @ CANTON ST",
    "stationName": "N Main St @ Canton St",
    "destinations": {},
    "lat": 34.08877,
    "lon": -84.29502
  },
  "OLD MILTON PKWY @ BROOKSIDE PKY": {
    "stationID": "OLD MILTON PKWY @ BROOKSIDE PKY",
    "stationName": "Old Milton Pkwy @ Brookside Pky",
    "destinations": {},
    "lat": 34.06469,
    "lon": -84.25391
  },
  "BROOKSIDE PKWY @ 3705": {
    "stationID": "BROOKSIDE PKWY @ 3705",
    "stationName": "Brookside Pkwy @ 3705",
    "destinations": {},
    "lat": 34.06235,
    "lon": -84.2544
  },
  "BROOKSIDE PKWY @ 3775": {
    "stationID": "BROOKSIDE PKWY @ 3775",
    "stationName": "Brookside Pkwy @ 3775",
    "destinations": {},
    "lat": 34.06125,
    "lon": -84.25248
  },
  "OLD MILTON PKWY @ ROCKBERRY LN": {
    "stationID": "OLD MILTON PKWY @ ROCKBERRY LN",
    "stationName": "Old Milton Pkwy @ Rockberry Ln",
    "destinations": {},
    "lat": 34.06144,
    "lon": -84.24442
  },
  "OLD MILTON PKWY @ COTTON CREEK ENTRY": {
    "stationID": "OLD MILTON PKWY @ COTTON CREEK ENTRY",
    "stationName": "Old Milton Pkwy @ Cotton Creek Entry",
    "destinations": {},
    "lat": 34.06485,
    "lon": -84.25353
  },
  "OLD MILTON PKWY @ 3502": {
    "stationID": "OLD MILTON PKWY @ 3502",
    "stationName": "Old Milton Pkwy @ 3502",
    "destinations": {},
    "lat": 34.0667,
    "lon": -84.25807
  },
  "NORTH POINT PKY @ 500": {
    "stationID": "NORTH POINT PKY @ 500",
    "stationName": "North Point Pky @ 500",
    "destinations": {},
    "lat": 34.08536,
    "lon": -84.25744
  },
  "WINDWARD PKWY @ WESTSIDE PKWY": {
    "stationID": "WINDWARD PKWY @ WESTSIDE PKWY",
    "stationName": "Windward Pkwy @ Westside Pkwy",
    "destinations": {},
    "lat": 34.08752,
    "lon": -84.26901
  },
  "MORRIS RD @ WEBB RD": {
    "stationID": "MORRIS RD @ WEBB RD",
    "stationName": "Morris Rd @ Webb Rd",
    "destinations": {},
    "lat": 34.09753,
    "lon": -84.25959
  },
  "MORRIS RD@13010": {
    "stationID": "MORRIS RD@13010",
    "stationName": "Morris Rd@13010",
    "destinations": {},
    "lat": 34.0943,
    "lon": -84.26256
  },
  "OLD MILTON PKWY @ PARK BRIDGE PKWY": {
    "stationID": "OLD MILTON PKWY @ PARK BRIDGE PKWY",
    "stationName": "Old Milton Pkwy @ Park Bridge Pkwy",
    "destinations": {},
    "lat": 34.06103,
    "lon": -84.24286
  },
  "WINDWARD PKWY @ N MAIN ST": {
    "stationID": "WINDWARD PKWY @ N MAIN ST",
    "stationName": "Windward Pkwy @ N Main St",
    "destinations": {},
    "lat": 34.09358,
    "lon": -84.27833
  },
  "WINDWARD PARK & RIDE": {
    "stationID": "WINDWARD PARK & RIDE",
    "stationName": "Windward Park & Ride",
    "destinations": {},
    "lat": 34.08599,
    "lon": -84.26056
  },
  "MORRIS RD @ 12395": {
    "stationID": "MORRIS RD @ 12395",
    "stationName": "Morris Rd @ 12395",
    "destinations": {},
    "lat": 34.08163,
    "lon": -84.26166
  },
  "WINDWARD PKWY @ 5555": {
    "stationID": "WINDWARD PKWY @ 5555",
    "stationName": "Windward Pkwy @ 5555",
    "destinations": {},
    "lat": 34.08702,
    "lon": -84.26543
  },
  "DEERFIELD PKWY @ WEBB RD": {
    "stationID": "DEERFIELD PKWY @ WEBB RD",
    "stationName": "Deerfield Pkwy @ Webb Rd",
    "destinations": {},
    "lat": 34.09702,
    "lon": -84.26488
  },
  "MORRIS RD @ ONE VERIZON PL": {
    "stationID": "MORRIS RD @ ONE VERIZON PL",
    "stationName": "Morris Rd @ One Verizon Pl",
    "destinations": {},
    "lat": 34.09079,
    "lon": -84.26771
  },
  "ALPHARETTA HWY @ HOUZE WAY": {
    "stationID": "ALPHARETTA HWY @ HOUZE WAY",
    "stationName": "Alpharetta Hwy @ Houze Way",
    "destinations": {},
    "lat": 34.04633,
    "lon": -84.33958
  },
  "ALPHARETTA HWY@SUN VALLEY DR": {
    "stationID": "ALPHARETTA HWY@SUN VALLEY DR",
    "stationName": "Alpharetta Hwy@sun Valley Dr",
    "destinations": {},
    "lat": 34.05006,
    "lon": -84.33762
  },
  "ALPHARETTA HWY @ ELKINS RD": {
    "stationID": "ALPHARETTA HWY @ ELKINS RD",
    "stationName": "Alpharetta Hwy @ Elkins Rd",
    "destinations": {},
    "lat": 34.05205,
    "lon": -84.33434
  },
  "ALPHARETTA HWY@MANSELL PL": {
    "stationID": "ALPHARETTA HWY@MANSELL PL",
    "stationName": "Alpharetta Hwy@mansell Pl",
    "destinations": {},
    "lat": 34.05385,
    "lon": -84.33134
  },
  "ALPHARETTA HWY @ GREENHOUSE DR": {
    "stationID": "ALPHARETTA HWY @ GREENHOUSE DR",
    "stationName": "Alpharetta Hwy @ Greenhouse Dr",
    "destinations": {},
    "lat": 34.05541,
    "lon": -84.32932
  },
  "ALPHARETTA HWY@ROSEMONT PKY": {
    "stationID": "ALPHARETTA HWY@ROSEMONT PKY",
    "stationName": "Alpharetta Hwy@rosemont Pky",
    "destinations": {},
    "lat": 34.05844,
    "lon": -84.32641
  },
  "ALPHARETTA HWY@HEMBREE RD": {
    "stationID": "ALPHARETTA HWY@HEMBREE RD",
    "stationName": "Alpharetta Hwy@hembree Rd",
    "destinations": {},
    "lat": 34.06083,
    "lon": -84.3246
  },
  "ALPHARETTA HWY@HOSPITAL BLVD": {
    "stationID": "ALPHARETTA HWY@HOSPITAL BLVD",
    "stationName": "Alpharetta Hwy@hospital Blvd",
    "destinations": {},
    "lat": 34.06275,
    "lon": -84.32298
  },
  "ALPHARETTA HWY@NORTHMEADOW PKWY": {
    "stationID": "ALPHARETTA HWY@NORTHMEADOW PKWY",
    "stationName": "Alpharetta Hwy@northmeadow Pkwy",
    "destinations": {},
    "lat": 34.06585,
    "lon": -84.31873
  },
  "ALPHARETTA HWY@HANEY DR": {
    "stationID": "ALPHARETTA HWY@HANEY DR",
    "stationName": "Alpharetta Hwy@haney Dr",
    "destinations": {},
    "lat": 34.06638,
    "lon": -84.31606
  },
  "ALPHARETTA HWY@WILLS RD": {
    "stationID": "ALPHARETTA HWY@WILLS RD",
    "stationName": "Alpharetta Hwy@wills Rd",
    "destinations": {},
    "lat": 34.06609,
    "lon": -84.31117
  },
  "ALPHARETTA HWY @ UPPER HEMBREE RD": {
    "stationID": "ALPHARETTA HWY @ UPPER HEMBREE RD",
    "stationName": "Alpharetta Hwy @ Upper Hembree Rd",
    "destinations": {},
    "lat": 34.06587,
    "lon": -84.319
  },
  "ALPHARETTA HWY @ HOSPITAL BLVD": {
    "stationID": "ALPHARETTA HWY @ HOSPITAL BLVD",
    "stationName": "Alpharetta Hwy @ Hospital Blvd",
    "destinations": {},
    "lat": 34.06329,
    "lon": -84.32272
  },
  "ALPHARETTA HWY @ HEMBREE RD": {
    "stationID": "ALPHARETTA HWY @ HEMBREE RD",
    "stationName": "Alpharetta Hwy @ Hembree Rd",
    "destinations": {},
    "lat": 34.0611,
    "lon": -84.32455
  },
  "ALPHARETTA HWY@11450": {
    "stationID": "ALPHARETTA HWY@11450",
    "stationName": "Alpharetta Hwy@11450",
    "destinations": {},
    "lat": 34.05718,
    "lon": -84.3279
  },
  "S MAIN ST @ 571": {
    "stationID": "S MAIN ST @ 571",
    "stationName": "S Main St @ 571",
    "destinations": {},
    "lat": 34.06623,
    "lon": -84.30983
  },
  "MAIN ST@BRADY PL": {
    "stationID": "MAIN ST@BRADY PL",
    "stationName": "Main St@brady Pl",
    "destinations": {},
    "lat": 34.0663,
    "lon": -84.30472
  },
  "MAIN ST@MAXWELL RD": {
    "stationID": "MAIN ST@MAXWELL RD",
    "stationName": "Main St@maxwell Rd",
    "destinations": {},
    "lat": 34.06787,
    "lon": -84.3011
  },
  "S MAIN ST @ JANIS LN": {
    "stationID": "S MAIN ST @ JANIS LN",
    "stationName": "S Main St @ Janis Ln",
    "destinations": {},
    "lat": 34.06984,
    "lon": -84.29787
  },
  "NORTH POINT PKWY @ 6360": {
    "stationID": "NORTH POINT PKWY @ 6360",
    "stationName": "North Point Pkwy @ 6360",
    "destinations": {},
    "lat": 34.04667,
    "lon": -84.29052
  },
  "NORTH POINT PKWY @ 6250": {
    "stationID": "NORTH POINT PKWY @ 6250",
    "stationName": "North Point Pkwy @ 6250",
    "destinations": {},
    "lat": 34.04698,
    "lon": -84.29038
  },
  "S MAIN ST @ MAXWELL RD": {
    "stationID": "S MAIN ST @ MAXWELL RD",
    "stationName": "S Main St @ Maxwell Rd",
    "destinations": {},
    "lat": 34.0678,
    "lon": -84.30161
  },
  "HAYNES BRIDGE RD@11385": {
    "stationID": "HAYNES BRIDGE RD@11385",
    "stationName": "Haynes Bridge Rd@11385",
    "destinations": {},
    "lat": 34.05689,
    "lon": -84.28637
  },
  "HAYNES BRIDGE RD @ RAINWATER DR": {
    "stationID": "HAYNES BRIDGE RD @ RAINWATER DR",
    "stationName": "Haynes Bridge Rd @ Rainwater Dr",
    "destinations": {},
    "lat": 34.06372,
    "lon": -84.29155
  },
  "HAYNES BRIDGE RD @ DEVORE RD": {
    "stationID": "HAYNES BRIDGE RD @ DEVORE RD",
    "stationName": "Haynes Bridge Rd @ Devore Rd",
    "destinations": {},
    "lat": 34.06613,
    "lon": -84.29311
  },
  "HAYNES BRIDGE RD@11770": {
    "stationID": "HAYNES BRIDGE RD@11770",
    "stationName": "Haynes Bridge Rd@11770",
    "destinations": {},
    "lat": 34.06888,
    "lon": -84.29393
  },
  "HAYNES BRIDGE RD @ WOODHAVEN WAY": {
    "stationID": "HAYNES BRIDGE RD @ WOODHAVEN WAY",
    "stationName": "Haynes Bridge Rd @ Woodhaven Way",
    "destinations": {},
    "lat": 34.06345,
    "lon": -84.29178
  },
  "HAYNES BRIDGE RD @ RAINWATER BLVD": {
    "stationID": "HAYNES BRIDGE RD @ RAINWATER BLVD",
    "stationName": "Haynes Bridge Rd @ Rainwater Blvd",
    "destinations": {},
    "lat": 34.06165,
    "lon": -84.29047
  },
  "ALPHARETTA HWY @ ROSEMONT PKWY": {
    "stationID": "ALPHARETTA HWY @ ROSEMONT PKWY",
    "stationName": "Alpharetta Hwy @ Rosemont Pkwy",
    "destinations": {},
    "lat": 34.05856,
    "lon": -84.32681
  },
  "HAYNES BRIDGE RD @ WESTSIDE PKWY": {
    "stationID": "HAYNES BRIDGE RD @ WESTSIDE PKWY",
    "stationName": "Haynes Bridge Rd @ Westside Pkwy",
    "destinations": {},
    "lat": 34.06106,
    "lon": -84.28915
  },
  "ACADEMY ST @ HAYNES BRIDGE RD": {
    "stationID": "ACADEMY ST @ HAYNES BRIDGE RD",
    "stationName": "Academy St @ Haynes Bridge Rd",
    "destinations": {},
    "lat": 34.07556,
    "lon": -84.29205
  },
  "HAYNES BRIDGE RD @ LAKEVIEW PKWY": {
    "stationID": "HAYNES BRIDGE RD @ LAKEVIEW PKWY",
    "stationName": "Haynes Bridge Rd @ Lakeview Pkwy",
    "destinations": {},
    "lat": 34.05729,
    "lon": -84.28695
  },
  "NORTH POINT PKWY @ NORTH POINT CT": {
    "stationID": "NORTH POINT PKWY @ NORTH POINT CT",
    "stationName": "North Point Pkwy @ North Point Ct",
    "destinations": {},
    "lat": 34.04798,
    "lon": -84.28858
  },
  "HAYNES BRIDGE RD @ ROCK MILL RD": {
    "stationID": "HAYNES BRIDGE RD @ ROCK MILL RD",
    "stationName": "Haynes Bridge Rd @ Rock Mill Rd",
    "destinations": {},
    "lat": 34.05231,
    "lon": -84.28562
  },
  "HAYNES BRIDGE RD @ NORTHWINDS PKWY": {
    "stationID": "HAYNES BRIDGE RD @ NORTHWINDS PKWY",
    "stationName": "Haynes Bridge Rd @ Northwinds Pkwy",
    "destinations": {},
    "lat": 34.05861,
    "lon": -84.28737
  },
  "NORTH POINT PKY@GEORGIA LANE": {
    "stationID": "NORTH POINT PKY@GEORGIA LANE",
    "stationName": "North Point Pky@georgia Lane",
    "destinations": {},
    "lat": 34.04988,
    "lon": -84.28329
  },
  "NORTH POINT PKWY @ GEORGIA LN": {
    "stationID": "NORTH POINT PKWY @ GEORGIA LN",
    "stationName": "North Point Pkwy @ Georgia Ln",
    "destinations": {},
    "lat": 34.04925,
    "lon": -84.28397
  },
  "HAYNES BRIDGE RD@NORTH POINT DR": {
    "stationID": "HAYNES BRIDGE RD@NORTH POINT DR",
    "stationName": "Haynes Bridge Rd@north Point Dr",
    "destinations": {},
    "lat": 34.04996,
    "lon": -84.28599
  },
  "NORTH POINT PKY@ KIMBALL BRIDGE RD": {
    "stationID": "NORTH POINT PKY@ KIMBALL BRIDGE RD",
    "stationName": "North Point Pky@ Kimball Bridge Rd",
    "destinations": {},
    "lat": 34.05462,
    "lon": -84.2743
  },
  "NORTH POINT PKWY @ 5055": {
    "stationID": "NORTH POINT PKWY @ 5055",
    "stationName": "North Point Pkwy @ 5055",
    "destinations": {},
    "lat": 34.05473,
    "lon": -84.27729
  },
  "NORTH POINT PKWY @ MILL CREEK AVE": {
    "stationID": "NORTH POINT PKWY @ MILL CREEK AVE",
    "stationName": "North Point Pkwy @ Mill Creek Ave",
    "destinations": {},
    "lat": 34.04984,
    "lon": -84.28144
  },
  "NORTH POINT PKY @ NORTH POINT DR": {
    "stationID": "NORTH POINT PKY @ NORTH POINT DR",
    "stationName": "North Point Pky @ North Point Dr",
    "destinations": {},
    "lat": 34.05045,
    "lon": -84.28075
  },
  "NORTH POINT PKY@ROCK MILL RD": {
    "stationID": "NORTH POINT PKY@ROCK MILL RD",
    "stationName": "North Point Pky@rock Mill Rd",
    "destinations": {},
    "lat": 34.05194,
    "lon": -84.27965
  },
  "NORTH POINT PKY @ ROYAL BLVD S": {
    "stationID": "NORTH POINT PKY @ ROYAL BLVD S",
    "stationName": "North Point Pky @ Royal Blvd S",
    "destinations": {},
    "lat": 34.05496,
    "lon": -84.27175
  },
  "NORTH POINT PKY @ 4000": {
    "stationID": "NORTH POINT PKY @ 4000",
    "stationName": "North Point Pky @ 4000",
    "destinations": {},
    "lat": 34.06594,
    "lon": -84.26201
  },
  "NORTH POINT PKY@PRESTON RIDGE RD": {
    "stationID": "NORTH POINT PKY@PRESTON RIDGE RD",
    "stationName": "North Point Pky@preston Ridge Rd",
    "destinations": {},
    "lat": 34.07102,
    "lon": -84.25657
  },
  "NORTH POINT PKY @ 3980": {
    "stationID": "NORTH POINT PKY @ 3980",
    "stationName": "North Point Pky @ 3980",
    "destinations": {},
    "lat": 34.06932,
    "lon": -84.26029
  },
  "NORTH POINT PKY@3180": {
    "stationID": "NORTH POINT PKY@3180",
    "stationName": "North Point Pky@3180",
    "destinations": {},
    "lat": 34.07452,
    "lon": -84.25821
  },
  "NORTH POINT PKY @ PRESTON RIDGE RD": {
    "stationID": "NORTH POINT PKY @ PRESTON RIDGE RD",
    "stationName": "North Point Pky @ Preston Ridge Rd",
    "destinations": {},
    "lat": 34.07168,
    "lon": -84.25677
  },
  "NORTH POINT PKY @ 3180": {
    "stationID": "NORTH POINT PKY @ 3180",
    "stationName": "North Point Pky @ 3180",
    "destinations": {},
    "lat": 34.07454,
    "lon": -84.25889
  },
  "NORTH POINT PKY @ 4125": {
    "stationID": "NORTH POINT PKY @ 4125",
    "stationName": "North Point Pky @ 4125",
    "destinations": {},
    "lat": 34.06661,
    "lon": -84.26216
  },
  "NORTH POINT PKY @ OLD MILTON PKY": {
    "stationID": "NORTH POINT PKY @ OLD MILTON PKY",
    "stationName": "North Point Pky @ Old Milton Pky",
    "destinations": {},
    "lat": 34.06858,
    "lon": -84.26068
  },
  "ATLANTA ST @ OAK ST": {
    "stationID": "ATLANTA ST @ OAK ST",
    "stationName": "Atlanta St @ Oak St",
    "destinations": {},
    "lat": 34.02018,
    "lon": -84.36188
  },
  "ALPHARETTA ST@ELIZABETH WAY": {
    "stationID": "ALPHARETTA ST@ELIZABETH WAY",
    "stationName": "Alpharetta St@elizabeth Way",
    "destinations": {},
    "lat": 34.0247,
    "lon": -84.36072
  },
  "ALPHARETTA ST@GREEN ST": {
    "stationID": "ALPHARETTA ST@GREEN ST",
    "stationName": "Alpharetta St@green St",
    "destinations": {},
    "lat": 34.02614,
    "lon": -84.35983
  },
  "ALPHARETTA ST @ WOODSTOCK ST": {
    "stationID": "ALPHARETTA ST @ WOODSTOCK ST",
    "stationName": "Alpharetta St @ Woodstock St",
    "destinations": {},
    "lat": 34.029,
    "lon": -84.35648
  },
  "ALPHARETTA ST @ THOMAS DR": {
    "stationID": "ALPHARETTA ST @ THOMAS DR",
    "stationName": "Alpharetta St @ Thomas Dr",
    "destinations": {},
    "lat": 34.03132,
    "lon": -84.35279
  },
  "ALPHARETTA ST@1207": {
    "stationID": "ALPHARETTA ST@1207",
    "stationName": "Alpharetta St@1207",
    "destinations": {},
    "lat": 34.03218,
    "lon": -84.3513
  },
  "ALPHARETTA ST@ALPINE DR": {
    "stationID": "ALPHARETTA ST@ALPINE DR",
    "stationName": "Alpharetta St@alpine Dr",
    "destinations": {},
    "lat": 34.0346,
    "lon": -84.34699
  },
  "ALPHARETTA ST @ STRICKLAND RD": {
    "stationID": "ALPHARETTA ST @ STRICKLAND RD",
    "stationName": "Alpharetta St @ Strickland Rd",
    "destinations": {},
    "lat": 34.03126,
    "lon": -84.35314
  },
  "ALPHARETTA ST@WOODSTOCK ST": {
    "stationID": "ALPHARETTA ST@WOODSTOCK ST",
    "stationName": "Alpharetta St@woodstock St",
    "destinations": {},
    "lat": 34.02973,
    "lon": -84.35561
  },
  "ALPHARETTA ST @ CHERRY ST": {
    "stationID": "ALPHARETTA ST @ CHERRY ST",
    "stationName": "Alpharetta St @ Cherry St",
    "destinations": {},
    "lat": 34.0284,
    "lon": -84.35767
  },
  "ATLANTA ST @ OXBO RD": {
    "stationID": "ATLANTA ST @ OXBO RD",
    "stationName": "Atlanta St @ Oxbo Rd",
    "destinations": {},
    "lat": 34.01757,
    "lon": -84.36204
  },
  "ATLANTA ST@HILL ST": {
    "stationID": "ATLANTA ST@HILL ST",
    "stationName": "Atlanta St@hill St",
    "destinations": {},
    "lat": 34.02161,
    "lon": -84.3616
  },
  "MAIN ST@PARK ST": {
    "stationID": "MAIN ST@PARK ST",
    "stationName": "Main St@park St",
    "destinations": {},
    "lat": 33.52456,
    "lon": -84.66468
  },
  "ALPHARETTA ST@THOMAS DR": {
    "stationID": "ALPHARETTA ST@THOMAS DR",
    "stationName": "Alpharetta St@thomas Dr",
    "destinations": {},
    "lat": 34.03061,
    "lon": -84.35394
  },
  "MANSELL RD@901": {
    "stationID": "MANSELL RD@901",
    "stationName": "Mansell Rd@901",
    "destinations": {},
    "lat": 34.0428,
    "lon": -84.33505
  },
  "MANSELL RD @ EAGLES CREST VILLAGE LN": {
    "stationID": "MANSELL RD @ EAGLES CREST VILLAGE LN",
    "stationName": "Mansell Rd @ Eagles Crest Village Ln",
    "destinations": {},
    "lat": 34.04272,
    "lon": -84.33946
  },
  "MANSELL RD@WARSAW RD": {
    "stationID": "MANSELL RD@WARSAW RD",
    "stationName": "Mansell Rd@warsaw Rd",
    "destinations": {},
    "lat": 34.0427,
    "lon": -84.3292
  },
  "MANSELL RD@OLD ROSWELL RD": {
    "stationID": "MANSELL RD@OLD ROSWELL RD",
    "stationName": "Mansell Rd@old Roswell Rd",
    "destinations": {},
    "lat": 34.04248,
    "lon": -84.32703
  },
  "MANSELL RD@DUKE DR": {
    "stationID": "MANSELL RD@DUKE DR",
    "stationName": "Mansell Rd@duke Dr",
    "destinations": {},
    "lat": 34.04015,
    "lon": -84.31857
  },
  "MANSELL RD @ WESTSIDE WAY": {
    "stationID": "MANSELL RD @ WESTSIDE WAY",
    "stationName": "Mansell Rd @ Westside Way",
    "destinations": {},
    "lat": 34.04032,
    "lon": -84.31927
  },
  "MANSELL RD@EAGLES CREST VILLAGE LN": {
    "stationID": "MANSELL RD@EAGLES CREST VILLAGE LN",
    "stationName": "Mansell Rd@eagles Crest Village Ln",
    "destinations": {},
    "lat": 34.04283,
    "lon": -84.33871
  },
  "HOLCOMB BRIDGE RD @ ALPHARETTA ST": {
    "stationID": "HOLCOMB BRIDGE RD @ ALPHARETTA ST",
    "stationName": "Holcomb Bridge Rd @ Alpharetta St",
    "destinations": {},
    "lat": 34.03588,
    "lon": -84.34287
  },
  "HOLCOMB BRIDGE RD@ALPHARETTA ST": {
    "stationID": "HOLCOMB BRIDGE RD@ALPHARETTA ST",
    "stationName": "Holcomb Bridge Rd@alpharetta St",
    "destinations": {},
    "lat": 34.03475,
    "lon": -84.34199
  },
  "HOLCOMB BRIDGE RD@GRIMES BRIDGE RD": {
    "stationID": "HOLCOMB BRIDGE RD@GRIMES BRIDGE RD",
    "stationName": "Holcomb Bridge Rd@grimes Bridge Rd",
    "destinations": {},
    "lat": 34.03392,
    "lon": -84.34207
  },
  "HOLCOMB BRIDGE RD @ OLD ROSWELL RD": {
    "stationID": "HOLCOMB BRIDGE RD @ OLD ROSWELL RD",
    "stationName": "Holcomb Bridge Rd @ Old Roswell Rd",
    "destinations": {},
    "lat": 34.03294,
    "lon": -84.34081
  },
  "HOLCOMB BRIDGE RD@OLD ROSWELL RD": {
    "stationID": "HOLCOMB BRIDGE RD@OLD ROSWELL RD",
    "stationName": "Holcomb Bridge Rd@old Roswell Rd",
    "destinations": {},
    "lat": 34.03176,
    "lon": -84.33937
  },
  "HOLCOMB BRIDGE RD @ MARKET PL": {
    "stationID": "HOLCOMB BRIDGE RD @ MARKET PL",
    "stationName": "Holcomb Bridge Rd @ Market Pl",
    "destinations": {},
    "lat": 34.0315,
    "lon": -84.33963
  },
  "HOLCOMB BRIDGE RD@MARKET PL": {
    "stationID": "HOLCOMB BRIDGE RD@MARKET PL",
    "stationName": "Holcomb Bridge Rd@market Pl",
    "destinations": {},
    "lat": 34.03061,
    "lon": -84.33844
  },
  "HOLCOMB BRIDGE RD @ WARSAW RD": {
    "stationID": "HOLCOMB BRIDGE RD @ WARSAW RD",
    "stationName": "Holcomb Bridge Rd @ Warsaw Rd",
    "destinations": {},
    "lat": 34.02816,
    "lon": -84.33501
  },
  "HOLCOMB BRIDGE RD @ RIVERWOOD LN": {
    "stationID": "HOLCOMB BRIDGE RD @ RIVERWOOD LN",
    "stationName": "Holcomb Bridge Rd @ Riverwood Ln",
    "destinations": {},
    "lat": 34.02597,
    "lon": -84.33263
  },
  "HOLCOMB BRIDGE RD @ OLD HOLCOMB BRIDGE RD": {
    "stationID": "HOLCOMB BRIDGE RD @ OLD HOLCOMB BRIDGE RD",
    "stationName": "Holcomb Bridge Rd @ Old Holcomb Bridge Rd",
    "destinations": {},
    "lat": 34.02594,
    "lon": -84.33217
  },
  "HOLCOMB BRIDGE RD @ DOGWOOD RD": {
    "stationID": "HOLCOMB BRIDGE RD @ DOGWOOD RD",
    "stationName": "Holcomb Bridge Rd @ Dogwood Rd",
    "destinations": {},
    "lat": 34.02366,
    "lon": -84.32973
  },
  "ALPHARETTA ST@MANSELL CIR": {
    "stationID": "ALPHARETTA ST@MANSELL CIR",
    "stationName": "Alpharetta St@mansell Cir",
    "destinations": {},
    "lat": 34.03456,
    "lon": -84.34641
  },
  "ALPHARETTA ST @ COMMERCE PKY": {
    "stationID": "ALPHARETTA ST @ COMMERCE PKY",
    "stationName": "Alpharetta St @ Commerce Pky",
    "destinations": {},
    "lat": 34.03903,
    "lon": -84.34279
  },
  "ALPHARETTA ST @ 10761": {
    "stationID": "ALPHARETTA ST @ 10761",
    "stationName": "Alpharetta St @ 10761",
    "destinations": {},
    "lat": 34.04101,
    "lon": -84.34197
  },
  "ALPHARETTA ST@MANSELL RD": {
    "stationID": "ALPHARETTA ST@MANSELL RD",
    "stationName": "Alpharetta St@mansell Rd",
    "destinations": {},
    "lat": 34.04207,
    "lon": -84.34146
  },
  "ALPHARETTA HWY@HOUZE WAY": {
    "stationID": "ALPHARETTA HWY@HOUZE WAY",
    "stationName": "Alpharetta Hwy@houze Way",
    "destinations": {},
    "lat": 34.04625,
    "lon": -84.33996
  },
  "ALPHARETTA HWY@MANSELL RD": {
    "stationID": "ALPHARETTA HWY@MANSELL RD",
    "stationName": "Alpharetta Hwy@mansell Rd",
    "destinations": {},
    "lat": 34.04322,
    "lon": -84.3413
  },
  "ALPHARETTA ST@1240": {
    "stationID": "ALPHARETTA ST@1240",
    "stationName": "Alpharetta St@1240",
    "destinations": {},
    "lat": 34.03239,
    "lon": -84.35106
  },
  "ALPHARETTA ST @ HOUZE RD": {
    "stationID": "ALPHARETTA ST @ HOUZE RD",
    "stationName": "Alpharetta St @ Houze Rd",
    "destinations": {},
    "lat": 34.03825,
    "lon": -84.34329
  },
  "HOLCOMB BRIDGE RD @ OLD DOGWOOD RD": {
    "stationID": "HOLCOMB BRIDGE RD @ OLD DOGWOOD RD",
    "stationName": "Holcomb Bridge Rd @ Old Dogwood Rd",
    "destinations": {},
    "lat": 34.02209,
    "lon": -84.32641
  },
  "HAYNES BRIDGE RD @ NORTH POINT PKWY": {
    "stationID": "HAYNES BRIDGE RD @ NORTH POINT PKWY",
    "stationName": "Haynes Bridge Rd @ North Point Pkwy",
    "destinations": {},
    "lat": 34.04906,
    "lon": -84.28672
  },
  "HAYNES BRIDGE RD @ NORTH POINT DR": {
    "stationID": "HAYNES BRIDGE RD @ NORTH POINT DR",
    "stationName": "Haynes Bridge Rd @ North Point Dr",
    "destinations": {},
    "lat": 34.05037,
    "lon": -84.28629
  },
  "ALPHARETTA HWY @ 10885": {
    "stationID": "ALPHARETTA HWY @ 10885",
    "stationName": "Alpharetta Hwy @ 10885",
    "destinations": {},
    "lat": 34.04444,
    "lon": -84.34047
  },
  "MANSELL RD@KINGSWOOD PL": {
    "stationID": "MANSELL RD@KINGSWOOD PL",
    "stationName": "Mansell Rd@kingswood Pl",
    "destinations": {},
    "lat": 34.04022,
    "lon": -84.3214
  },
  "MANSELL RD @ 980": {
    "stationID": "MANSELL RD @ 980",
    "stationName": "Mansell Rd @ 980",
    "destinations": {},
    "lat": 34.04291,
    "lon": -84.33238
  },
  "MANSELL RD@DAVIS DR": {
    "stationID": "MANSELL RD@DAVIS DR",
    "stationName": "Mansell Rd@davis Dr",
    "destinations": {},
    "lat": 34.0404,
    "lon": -84.31568
  },
  "MANSELL PARK & RIDE - ON RAMP": {
    "stationID": "MANSELL PARK & RIDE - ON RAMP",
    "stationName": "Mansell Park & Ride   On Ramp",
    "destinations": {},
    "lat": 34.03815,
    "lon": -84.31377
  },
  "MANSELL PARK & RIDE - IN LOT": {
    "stationID": "MANSELL PARK & RIDE - IN LOT",
    "stationName": "Mansell Park & Ride   In Lot",
    "destinations": {},
    "lat": 34.03907,
    "lon": -84.31306
  },
  "ALPHARETTA ST @ 10730": {
    "stationID": "ALPHARETTA ST @ 10730",
    "stationName": "Alpharetta St @ 10730",
    "destinations": {},
    "lat": 34.04128,
    "lon": -84.34202
  },
  "MANSELL RD@COLONIAL CTR PKWY": {
    "stationID": "MANSELL RD@COLONIAL CTR PKWY",
    "stationName": "Mansell Rd@colonial Ctr Pkwy",
    "destinations": {},
    "lat": 34.04263,
    "lon": -84.32747
  },
  "NORTH POINT PKWY @ MANSELL RD": {
    "stationID": "NORTH POINT PKWY @ MANSELL RD",
    "stationName": "North Point Pkwy @ Mansell Rd",
    "destinations": {},
    "lat": 34.0383,
    "lon": -84.30651
  },
  "NORTH POINT PKWY @ 7731": {
    "stationID": "NORTH POINT PKWY @ 7731",
    "stationName": "North Point Pkwy @ 7731",
    "destinations": {},
    "lat": 34.03966,
    "lon": -84.3058
  },
  "NORTH POINT PKWY @ 7301": {
    "stationID": "NORTH POINT PKWY @ 7301",
    "stationName": "North Point Pkwy @ 7301",
    "destinations": {},
    "lat": 34.04203,
    "lon": -84.30373
  },
  "NORTH POINT PKWY @ 7231": {
    "stationID": "NORTH POINT PKWY @ 7231",
    "stationName": "North Point Pkwy @ 7231",
    "destinations": {},
    "lat": 34.04309,
    "lon": -84.30214
  },
  "NORTH POINT PKWY @ 6440": {
    "stationID": "NORTH POINT PKWY @ 6440",
    "stationName": "North Point Pkwy @ 6440",
    "destinations": {},
    "lat": 34.04528,
    "lon": -84.29369
  },
  "NORTH POINT PWKY @ 6499": {
    "stationID": "NORTH POINT PWKY @ 6499",
    "stationName": "North Point Pwky @ 6499",
    "destinations": {},
    "lat": 34.04539,
    "lon": -84.29407
  },
  "NORTH POINT PKWY @ ENCORE PKWY": {
    "stationID": "NORTH POINT PKWY @ ENCORE PKWY",
    "stationName": "North Point Pkwy @ Encore Pkwy",
    "destinations": {},
    "lat": 34.04376,
    "lon": -84.29977
  },
  "NORTH POINT PKWY @ 7300": {
    "stationID": "NORTH POINT PKWY @ 7300",
    "stationName": "North Point Pkwy @ 7300",
    "destinations": {},
    "lat": 34.04205,
    "lon": -84.30322
  },
  "ROSWELL RD@HOPE RD": {
    "stationID": "ROSWELL RD@HOPE RD",
    "stationName": "Roswell Rd@hope Rd",
    "destinations": {},
    "lat": 33.99075,
    "lon": -84.3519
  },
  "ROSWELL RD @ HUNTCLIFF NE": {
    "stationID": "ROSWELL RD @ HUNTCLIFF NE",
    "stationName": "Roswell Rd @ Huntcliff Ne",
    "destinations": {},
    "lat": 33.99279,
    "lon": -84.35171
  },
  "ROSWELL RD @ 8740": {
    "stationID": "ROSWELL RD @ 8740",
    "stationName": "Roswell Rd @ 8740",
    "destinations": {},
    "lat": 33.99486,
    "lon": -84.35137
  },
  "ROSWELL RD@RIVER PKY": {
    "stationID": "ROSWELL RD@RIVER PKY",
    "stationName": "Roswell Rd@river Pky",
    "destinations": {},
    "lat": 34.00151,
    "lon": -84.35046
  },
  "ROSWELL RD @ ROBERTS DR": {
    "stationID": "ROSWELL RD @ ROBERTS DR",
    "stationName": "Roswell Rd @ Roberts Dr",
    "destinations": {},
    "lat": 34.00272,
    "lon": -84.35062
  },
  "ROSWELL RD@DUNWOODY PL": {
    "stationID": "ROSWELL RD@DUNWOODY PL",
    "stationName": "Roswell Rd@dunwoody Pl",
    "destinations": {},
    "lat": 33.99974,
    "lon": -84.35062
  },
  "ROSWELL RD@8775": {
    "stationID": "ROSWELL RD@8775",
    "stationName": "Roswell Rd@8775",
    "destinations": {},
    "lat": 33.99846,
    "lon": -84.35053
  },
  "ROSWELL RD@9040": {
    "stationID": "ROSWELL RD@9040",
    "stationName": "Roswell Rd@9040",
    "destinations": {},
    "lat": 34.00017,
    "lon": -84.35037
  },
  "ROSWELL RD@RIVER PKWY": {
    "stationID": "ROSWELL RD@RIVER PKWY",
    "stationName": "Roswell Rd@river Pkwy",
    "destinations": {},
    "lat": 34.00139,
    "lon": -84.35033
  },
  "ROSWELL RD@ROBERTS DR": {
    "stationID": "ROSWELL RD@ROBERTS DR",
    "stationName": "Roswell Rd@roberts Dr",
    "destinations": {},
    "lat": 34.00296,
    "lon": -84.35042
  },
  "ATLANTA ST@RIVERSIDE RD": {
    "stationID": "ATLANTA ST@RIVERSIDE RD",
    "stationName": "Atlanta St@riverside Rd",
    "destinations": {},
    "lat": 34.00583,
    "lon": -84.35068
  },
  "ATLANTA ST@CHATTAHOOCHEE CIR": {
    "stationID": "ATLANTA ST@CHATTAHOOCHEE CIR",
    "stationName": "Atlanta St@chattahoochee Cir",
    "destinations": {},
    "lat": 34.0072,
    "lon": -84.35278
  },
  "ATLANTA ST@WARM SPRINGS CIR": {
    "stationID": "ATLANTA ST@WARM SPRINGS CIR",
    "stationName": "Atlanta St@warm Springs Cir",
    "destinations": {},
    "lat": 34.0087,
    "lon": -84.35744
  },
  "ATLANTA ST@JONES DR": {
    "stationID": "ATLANTA ST@JONES DR",
    "stationName": "Atlanta St@jones Dr",
    "destinations": {},
    "lat": 34.00865,
    "lon": -84.35984
  },
  "ATLANTA ST@KING ST": {
    "stationID": "ATLANTA ST@KING ST",
    "stationName": "Atlanta St@king St",
    "destinations": {},
    "lat": 34.01242,
    "lon": -84.36278
  },
  "ATLANTA ST@MILL ST": {
    "stationID": "ATLANTA ST@MILL ST",
    "stationName": "Atlanta St@mill St",
    "destinations": {},
    "lat": 34.01409,
    "lon": -84.36285
  },
  "ATLANTA ST @ JONES DR": {
    "stationID": "ATLANTA ST @ JONES DR",
    "stationName": "Atlanta St @ Jones Dr",
    "destinations": {},
    "lat": 34.00861,
    "lon": -84.36001
  },
  "ATLANTA ST@AZALEA DR": {
    "stationID": "ATLANTA ST@AZALEA DR",
    "stationName": "Atlanta St@azalea Dr",
    "destinations": {},
    "lat": 34.00601,
    "lon": -84.35094
  },
  "ATLANTA ST@426": {
    "stationID": "ATLANTA ST@426",
    "stationName": "Atlanta St@426",
    "destinations": {},
    "lat": 34.00977,
    "lon": -84.36128
  },
  "ATLANTA ST@CHATTAHOOCHEE ST": {
    "stationID": "ATLANTA ST@CHATTAHOOCHEE ST",
    "stationName": "Atlanta St@chattahoochee St",
    "destinations": {},
    "lat": 34.01181,
    "lon": -84.3628
  },
  "DUNWOODY PL @ 8601": {
    "stationID": "DUNWOODY PL @ 8601",
    "stationName": "Dunwoody Pl @ 8601",
    "destinations": {},
    "lat": 33.99056,
    "lon": -84.34349
  },
  "DUNWOODY PL @ ROSWELL RD": {
    "stationID": "DUNWOODY PL @ ROSWELL RD",
    "stationName": "Dunwoody Pl @ Roswell Rd",
    "destinations": {},
    "lat": 33.99554,
    "lon": -84.34949
  },
  "DUNWOODY PL @ N RIVER DR": {
    "stationID": "DUNWOODY PL @ N RIVER DR",
    "stationName": "Dunwoody Pl @ N River Dr",
    "destinations": {},
    "lat": 33.99334,
    "lon": -84.34732
  },
  "ROSWELL RD@HUNTINGTON PLACE DR": {
    "stationID": "ROSWELL RD@HUNTINGTON PLACE DR",
    "stationName": "Roswell Rd@huntington Place Dr",
    "destinations": {},
    "lat": 33.99244,
    "lon": -84.35153
  },
  "ATLANTA ST @ SLOAN ST": {
    "stationID": "ATLANTA ST @ SLOAN ST",
    "stationName": "Atlanta St @ Sloan St",
    "destinations": {},
    "lat": 34.01536,
    "lon": -84.36283
  },
  "DUNWOODY PL @ ROBERTS DR": {
    "stationID": "DUNWOODY PL @ ROBERTS DR",
    "stationName": "Dunwoody Pl @ Roberts Dr",
    "destinations": {},
    "lat": 33.99027,
    "lon": -84.34313
  },
  "DUNWOODY PL @ HIGHTOWER TRL": {
    "stationID": "DUNWOODY PL @ HIGHTOWER TRL",
    "stationName": "Dunwoody Pl @ Hightower Trl",
    "destinations": {},
    "lat": 33.98618,
    "lon": -84.34148
  },
  "DUNWOODY PL @ 8700": {
    "stationID": "DUNWOODY PL @ 8700",
    "stationName": "Dunwoody Pl @ 8700",
    "destinations": {},
    "lat": 33.99157,
    "lon": -84.34503
  },
  "DUNWOODY PL @ 8800": {
    "stationID": "DUNWOODY PL @ 8800",
    "stationName": "Dunwoody Pl @ 8800",
    "destinations": {},
    "lat": 33.99148,
    "lon": -84.34507
  },
  "DUNWOODY PL @ HOPE RD": {
    "stationID": "DUNWOODY PL @ HOPE RD",
    "stationName": "Dunwoody Pl @ Hope Rd",
    "destinations": {},
    "lat": 33.99308,
    "lon": -84.3471
  },
  "JETT FERRY RD @ DUNWOODY CLUB DR": {
    "stationID": "JETT FERRY RD @ DUNWOODY CLUB DR",
    "stationName": "Jett Ferry Rd @ Dunwoody Club Dr",
    "destinations": {},
    "lat": 33.96,
    "lon": -84.30249
  },
  "ROSWELL RD NE@TROWBRIDGE RD": {
    "stationID": "ROSWELL RD NE@TROWBRIDGE RD",
    "stationName": "Roswell Rd Ne@trowbridge Rd",
    "destinations": {},
    "lat": 33.95938,
    "lon": -84.36523
  },
  "ROSWELL RD@7546": {
    "stationID": "ROSWELL RD@7546",
    "stationName": "Roswell Rd@7546",
    "destinations": {},
    "lat": 33.96337,
    "lon": -84.36492
  },
  "ROSWELL RD @ 7741": {
    "stationID": "ROSWELL RD @ 7741",
    "stationName": "Roswell Rd @ 7741",
    "destinations": {},
    "lat": 33.96623,
    "lon": -84.36279
  },
  "ROSWELL RD @ HAMPTON DE": {
    "stationID": "ROSWELL RD @ HAMPTON DE",
    "stationName": "Roswell Rd @ Hampton De",
    "destinations": {},
    "lat": 33.97341,
    "lon": -84.35711
  },
  "ROSWELL RD@BRANTLEY RD": {
    "stationID": "ROSWELL RD@BRANTLEY RD",
    "stationName": "Roswell Rd@brantley Rd",
    "destinations": {},
    "lat": 33.97436,
    "lon": -84.35564
  },
  "ROSWELL RD @ PITTS RD": {
    "stationID": "ROSWELL RD @ PITTS RD",
    "stationName": "Roswell Rd @ Pitts Rd",
    "destinations": {},
    "lat": 33.97498,
    "lon": -84.35366
  },
  "ROSWELL RD @ NORTHRIDGE CROSSING DR": {
    "stationID": "ROSWELL RD @ NORTHRIDGE CROSSING DR",
    "stationName": "Roswell Rd @ Northridge Crossing Dr",
    "destinations": {},
    "lat": 33.97702,
    "lon": -84.35156
  },
  "ROSWELL RD@8215": {
    "stationID": "ROSWELL RD@8215",
    "stationName": "Roswell Rd@8215",
    "destinations": {},
    "lat": 33.97891,
    "lon": -84.35107
  },
  "ROSWELL RD@NORTHRIDGE RD": {
    "stationID": "ROSWELL RD@NORTHRIDGE RD",
    "stationName": "Roswell Rd@northridge Rd",
    "destinations": {},
    "lat": 33.98174,
    "lon": -84.3502
  },
  "ROSWELL RD@NORTHRIDGE PKY": {
    "stationID": "ROSWELL RD@NORTHRIDGE PKY",
    "stationName": "Roswell Rd@northridge Pky",
    "destinations": {},
    "lat": 33.98434,
    "lon": -84.3506
  },
  "ROSWELL RD@HIGHTOWER TRL": {
    "stationID": "ROSWELL RD@HIGHTOWER TRL",
    "stationName": "Roswell Rd@hightower Trl",
    "destinations": {},
    "lat": 33.98779,
    "lon": -84.35141
  },
  "ROSWELL RD @ TROWBRIDGE RD": {
    "stationID": "ROSWELL RD @ TROWBRIDGE RD",
    "stationName": "Roswell Rd @ Trowbridge Rd",
    "destinations": {},
    "lat": 33.95908,
    "lon": -84.36534
  },
  "ROSWELL RD@7730": {
    "stationID": "ROSWELL RD@7730",
    "stationName": "Roswell Rd@7730",
    "destinations": {},
    "lat": 33.96577,
    "lon": -84.36343
  },
  "ROSWELL RD @ MORGAN FALLS RD": {
    "stationID": "ROSWELL RD @ MORGAN FALLS RD",
    "stationName": "Roswell Rd @ Morgan Falls Rd",
    "destinations": {},
    "lat": 33.9689,
    "lon": -84.36111
  },
  "ROSWELL RD@7840": {
    "stationID": "ROSWELL RD@7840",
    "stationName": "Roswell Rd@7840",
    "destinations": {},
    "lat": 33.96975,
    "lon": -84.36008
  },
  "ROSWELL RD @ 7878": {
    "stationID": "ROSWELL RD @ 7878",
    "stationName": "Roswell Rd @ 7878",
    "destinations": {},
    "lat": 33.9715,
    "lon": -84.35875
  },
  "ROSWELL RD@GROGANS FERRY RD": {
    "stationID": "ROSWELL RD@GROGANS FERRY RD",
    "stationName": "Roswell Rd@grogans Ferry Rd",
    "destinations": {},
    "lat": 33.97322,
    "lon": -84.35761
  },
  "ROSWELL RD @ ISON RD": {
    "stationID": "ROSWELL RD @ ISON RD",
    "stationName": "Roswell Rd @ Ison Rd",
    "destinations": {},
    "lat": 33.97533,
    "lon": -84.35328
  },
  "ROSWELL RD@NORTHRIDGE CROSSING DR": {
    "stationID": "ROSWELL RD@NORTHRIDGE CROSSING DR",
    "stationName": "Roswell Rd@northridge Crossing Dr",
    "destinations": {},
    "lat": 33.97699,
    "lon": -84.35193
  },
  "ROSWELL RD@8450": {
    "stationID": "ROSWELL RD@8450",
    "stationName": "Roswell Rd@8450",
    "destinations": {},
    "lat": 33.98573,
    "lon": -84.35079
  },
  "ROSWELL RD@MORGAN FALLS RD": {
    "stationID": "ROSWELL RD@MORGAN FALLS RD",
    "stationName": "Roswell Rd@morgan Falls Rd",
    "destinations": {},
    "lat": 33.96833,
    "lon": -84.36125
  },
  "ROSWELL RD@7525": {
    "stationID": "ROSWELL RD@7525",
    "stationName": "Roswell Rd@7525",
    "destinations": {},
    "lat": 33.96085,
    "lon": -84.36551
  },
  "ROSWELL RD @ NORTHRIDGE RD": {
    "stationID": "ROSWELL RD @ NORTHRIDGE RD",
    "stationName": "Roswell Rd @ Northridge Rd",
    "destinations": {},
    "lat": 33.98106,
    "lon": -84.35043
  },
  "DUNWOODY PL @ NORTHRIDGE PKY": {
    "stationID": "DUNWOODY PL @ NORTHRIDGE PKY",
    "stationName": "Dunwoody Pl @ Northridge Pky",
    "destinations": {},
    "lat": 33.98475,
    "lon": -84.34127
  },
  "DUNWOODY PL @ NORTHRIDGE RD": {
    "stationID": "DUNWOODY PL @ NORTHRIDGE RD",
    "stationName": "Dunwoody Pl @ Northridge Rd",
    "destinations": {},
    "lat": 33.98275,
    "lon": -84.34281
  },
  "ROSWELL RD @ 7865": {
    "stationID": "ROSWELL RD @ 7865",
    "stationName": "Roswell Rd @ 7865",
    "destinations": {},
    "lat": 33.97147,
    "lon": -84.35845
  },
  "ROSWELL RD NE @ ALDERWOOD PL": {
    "stationID": "ROSWELL RD NE @ ALDERWOOD PL",
    "stationName": "Roswell Rd Ne @ Alderwood Pl",
    "destinations": {},
    "lat": 33.93865,
    "lon": -84.37701
  },
  "ROSWELL RD NE@6851": {
    "stationID": "ROSWELL RD NE@6851",
    "stationName": "Roswell Rd Ne@6851",
    "destinations": {},
    "lat": 33.94231,
    "lon": -84.37287
  },
  "ROSWELL RD @ CIMARRON PKWY": {
    "stationID": "ROSWELL RD @ CIMARRON PKWY",
    "stationName": "Roswell Rd @ Cimarron Pkwy",
    "destinations": {},
    "lat": 33.96281,
    "lon": -84.36562
  },
  "ROSWELL RD NE@SPALDING DR NE": {
    "stationID": "ROSWELL RD NE@SPALDING DR NE",
    "stationName": "Roswell Rd Ne@spalding Dr Ne",
    "destinations": {},
    "lat": 33.94622,
    "lon": -84.37125
  },
  "ROSWELL RD NE@7070": {
    "stationID": "ROSWELL RD NE@7070",
    "stationName": "Roswell Rd Ne@7070",
    "destinations": {},
    "lat": 33.94801,
    "lon": -84.37084
  },
  "ROSWELL RD NE@7140": {
    "stationID": "ROSWELL RD NE@7140",
    "stationName": "Roswell Rd Ne@7140",
    "destinations": {},
    "lat": 33.94975,
    "lon": -84.36941
  },
  "ROSWELL RD NE@7155": {
    "stationID": "ROSWELL RD NE@7155",
    "stationName": "Roswell Rd Ne@7155",
    "destinations": {},
    "lat": 33.95072,
    "lon": -84.36817
  },
  "ROSWELL RD NE @ DALRYMPLE RD NE": {
    "stationID": "ROSWELL RD NE @ DALRYMPLE RD NE",
    "stationName": "Roswell Rd Ne @ Dalrymple Rd Ne",
    "destinations": {},
    "lat": 33.95601,
    "lon": -84.36439
  },
  "ROSWELL RD NE@7447": {
    "stationID": "ROSWELL RD NE@7447",
    "stationName": "Roswell Rd Ne@7447",
    "destinations": {},
    "lat": 33.9569,
    "lon": -84.36463
  },
  "ROSWELL RD NE @ 6940": {
    "stationID": "ROSWELL RD NE @ 6940",
    "stationName": "Roswell Rd Ne @ 6940",
    "destinations": {},
    "lat": 33.94467,
    "lon": -84.37175
  },
  "ROSWELL RD NE@6900": {
    "stationID": "ROSWELL RD NE@6900",
    "stationName": "Roswell Rd Ne@6900",
    "destinations": {},
    "lat": 33.94318,
    "lon": -84.37283
  },
  "ROSWELL RD NE @ 6500": {
    "stationID": "ROSWELL RD NE @ 6500",
    "stationName": "Roswell Rd Ne @ 6500",
    "destinations": {},
    "lat": 33.93393,
    "lon": -84.38
  },
  "ROSWELL RD NE @ ABERNATHY RD": {
    "stationID": "ROSWELL RD NE @ ABERNATHY RD",
    "stationName": "Roswell Rd Ne @ Abernathy Rd",
    "destinations": {},
    "lat": 33.93606,
    "lon": -84.37911
  },
  "ROSWELL RD NE @ 7256": {
    "stationID": "ROSWELL RD NE @ 7256",
    "stationName": "Roswell Rd Ne @ 7256",
    "destinations": {},
    "lat": 33.95327,
    "lon": -84.36678
  },
  "ROSWELL RD NE@7256": {
    "stationID": "ROSWELL RD NE@7256",
    "stationName": "Roswell Rd Ne@7256",
    "destinations": {},
    "lat": 33.95277,
    "lon": -84.36665
  },
  "ROSWELL RD NE@7100": {
    "stationID": "ROSWELL RD NE@7100",
    "stationName": "Roswell Rd Ne@7100",
    "destinations": {},
    "lat": 33.94943,
    "lon": -84.37019
  },
  "ROSWELL RD NE @ ABERNATHY RD NW": {
    "stationID": "ROSWELL RD NE @ ABERNATHY RD NW",
    "stationName": "Roswell Rd Ne @ Abernathy Rd Nw",
    "destinations": {},
    "lat": 33.93601,
    "lon": -84.3789
  },
  "ASHFORD DUNWOODY RD@ASHFORD PKY": {
    "stationID": "ASHFORD DUNWOODY RD@ASHFORD PKY",
    "stationName": "Ashford Dunwoody Rd@ashford Pky",
    "destinations": {},
    "lat": 33.93416,
    "lon": -84.33757
  },
  "ASHFORD DUNWOODY RD @ ASHFORD CENTER": {
    "stationID": "ASHFORD DUNWOODY RD @ ASHFORD CENTER",
    "stationName": "Ashford Dunwoody Rd @ Ashford Center",
    "destinations": {},
    "lat": 33.93981,
    "lon": -84.33806
  },
  "ASHFORD DUNWOODY RD@VALLEY VIEW RD": {
    "stationID": "ASHFORD DUNWOODY RD@VALLEY VIEW RD",
    "stationName": "Ashford Dunwoody Rd@valley View Rd",
    "destinations": {},
    "lat": 33.9362,
    "lon": -84.33776
  },
  "ASHFORD DUNWOODY RD @ ASHFORD CENTER PKY": {
    "stationID": "ASHFORD DUNWOODY RD @ ASHFORD CENTER PKY",
    "stationName": "Ashford Dunwoody Rd @ Ashford Center Pky",
    "destinations": {},
    "lat": 33.93895,
    "lon": -84.33821
  },
  "ASHFORD DUNWOODY RD@ASHFORD CTR N": {
    "stationID": "ASHFORD DUNWOODY RD@ASHFORD CTR N",
    "stationName": "Ashford Dunwoody Rd@ashford Ctr N",
    "destinations": {},
    "lat": 33.94129,
    "lon": -84.33823
  },
  "CHAMBLEE DUNWOODY RD @ MT VERNON RD": {
    "stationID": "CHAMBLEE DUNWOODY RD @ MT VERNON RD",
    "stationName": "Chamblee Dunwoody Rd @ Mt Vernon Rd",
    "destinations": {},
    "lat": 33.94624,
    "lon": -84.33455
  },
  "CHAMBLEE DUNWOODY RD @ NANDINA LN": {
    "stationID": "CHAMBLEE DUNWOODY RD @ NANDINA LN",
    "stationName": "Chamblee Dunwoody Rd @ Nandina Ln",
    "destinations": {},
    "lat": 33.94769,
    "lon": -84.33551
  },
  "CHAMBLEE DUNWOODY RD @ DUNWOODY VILLAGE PKWY": {
    "stationID": "CHAMBLEE DUNWOODY RD @ DUNWOODY VILLAGE PKWY",
    "stationName": "Chamblee Dunwoody Rd @ Dunwoody Village Pkwy",
    "destinations": {},
    "lat": 33.94933,
    "lon": -84.33632
  },
  "ASHFORD DUNWOODY RD @ ASHFORD CTR N": {
    "stationID": "ASHFORD DUNWOODY RD @ ASHFORD CTR N",
    "stationName": "Ashford Dunwoody Rd @ Ashford Ctr N",
    "destinations": {},
    "lat": 33.94163,
    "lon": -84.33832
  },
  "ASHFORD DUNWOODY RD@ASHFORD GABLES": {
    "stationID": "ASHFORD DUNWOODY RD@ASHFORD GABLES",
    "stationName": "Ashford Dunwoody Rd@ashford Gables",
    "destinations": {},
    "lat": 33.93667,
    "lon": -84.33803
  },
  "ASHFORD DUNWOODY RD@ASHWOOD PKWY": {
    "stationID": "ASHFORD DUNWOODY RD@ASHWOOD PKWY",
    "stationName": "Ashford Dunwoody Rd@ashwood Pkwy",
    "destinations": {},
    "lat": 33.93386,
    "lon": -84.33788
  },
  "ASHFORD DUNWOODY RD@MEADOW LANE RD": {
    "stationID": "ASHFORD DUNWOODY RD@MEADOW LANE RD",
    "stationName": "Ashford Dunwoody Rd@meadow Lane Rd",
    "destinations": {},
    "lat": 33.93207,
    "lon": -84.3374
  },
  "ASHFORD DUNWOODY RD@MT VERNON RD": {
    "stationID": "ASHFORD DUNWOODY RD@MT VERNON RD",
    "stationName": "Ashford Dunwoody Rd@mt Vernon Rd",
    "destinations": {},
    "lat": 33.94277,
    "lon": -84.3379
  },
  "DUNWOODY VILLAGE PKY @ MT VERNON RD": {
    "stationID": "DUNWOODY VILLAGE PKY @ MT VERNON RD",
    "stationName": "Dunwoody Village Pky @ Mt Vernon Rd",
    "destinations": {},
    "lat": 33.94761,
    "lon": -84.33162
  },
  "DUNWOODY VILLAGE PKY @ 1424": {
    "stationID": "DUNWOODY VILLAGE PKY @ 1424",
    "stationName": "Dunwoody Village Pky @ 1424",
    "destinations": {},
    "lat": 33.94937,
    "lon": -84.33265
  },
  "N PEACHTREE RD @ KINGS POINT DR": {
    "stationID": "N PEACHTREE RD @ KINGS POINT DR",
    "stationName": "N Peachtree Rd @ Kings Point Dr",
    "destinations": {},
    "lat": 33.9308,
    "lon": -84.29469
  },
  "MT VERNON RD @ TILLY MILL RD": {
    "stationID": "MT VERNON RD @ TILLY MILL RD",
    "stationName": "Mt Vernon Rd @ Tilly Mill Rd",
    "destinations": {},
    "lat": 33.95551,
    "lon": -84.30532
  },
  "N PEACHTREE RD@KINGS POINT DR": {
    "stationID": "N PEACHTREE RD@KINGS POINT DR",
    "stationName": "N Peachtree Rd@kings Point Dr",
    "destinations": {},
    "lat": 33.93141,
    "lon": -84.29487
  },
  "MT VERNON RD @ MEADOW LAKE DR": {
    "stationID": "MT VERNON RD @ MEADOW LAKE DR",
    "stationName": "Mt Vernon Rd @ Meadow Lake Dr",
    "destinations": {},
    "lat": 33.95264,
    "lon": -84.31175
  },
  "TILLY MILL RD @ CHERRING DR": {
    "stationID": "TILLY MILL RD @ CHERRING DR",
    "stationName": "Tilly Mill Rd @ Cherring Dr",
    "destinations": {},
    "lat": 33.93894,
    "lon": -84.29708
  },
  "MT VERNON RD @ MANHASSET DR": {
    "stationID": "MT VERNON RD @ MANHASSET DR",
    "stationName": "Mt Vernon Rd @ Manhasset Dr",
    "destinations": {},
    "lat": 33.95058,
    "lon": -84.31932
  },
  "TILLY MILL RD@CHERRING DR": {
    "stationID": "TILLY MILL RD@CHERRING DR",
    "stationName": "Tilly Mill Rd@cherring Dr",
    "destinations": {},
    "lat": 33.93899,
    "lon": -84.29703
  },
  "MT VERNON RD @ VERMACK RD": {
    "stationID": "MT VERNON RD @ VERMACK RD",
    "stationName": "Mt Vernon Rd @ Vermack Rd",
    "destinations": {},
    "lat": 33.95026,
    "lon": -84.31968
  },
  "TILLY MILL RD@DARTFORD DR": {
    "stationID": "TILLY MILL RD@DARTFORD DR",
    "stationName": "Tilly Mill Rd@dartford Dr",
    "destinations": {},
    "lat": 33.94494,
    "lon": -84.30219
  },
  "MT VERNON RD @ VERNON RIDGE DR": {
    "stationID": "MT VERNON RD @ VERNON RIDGE DR",
    "stationName": "Mt Vernon Rd @ Vernon Ridge Dr",
    "destinations": {},
    "lat": 33.9479,
    "lon": -84.32634
  },
  "TILLY MILL RD @ TILLINGHAM CT": {
    "stationID": "TILLY MILL RD @ TILLINGHAM CT",
    "stationName": "Tilly Mill Rd @ Tillingham Ct",
    "destinations": {},
    "lat": 33.94271,
    "lon": -84.29972
  },
  "TILLY MILL RD@STEPHENS WALK": {
    "stationID": "TILLY MILL RD@STEPHENS WALK",
    "stationName": "Tilly Mill Rd@stephens Walk",
    "destinations": {},
    "lat": 33.94637,
    "lon": -84.30298
  },
  "MT VERNON RD @ STRATHAM DR": {
    "stationID": "MT VERNON RD @ STRATHAM DR",
    "stationName": "Mt Vernon Rd @ Stratham Dr",
    "destinations": {},
    "lat": 33.95178,
    "lon": -84.31463
  },
  "TILLY MILL RD @ STEPHENS WALK": {
    "stationID": "TILLY MILL RD @ STEPHENS WALK",
    "stationName": "Tilly Mill Rd @ Stephens Walk",
    "destinations": {},
    "lat": 33.94668,
    "lon": -84.30342
  },
  "TILLY MILL RD@SANDELL DR": {
    "stationID": "TILLY MILL RD@SANDELL DR",
    "stationName": "Tilly Mill Rd@sandell Dr",
    "destinations": {},
    "lat": 33.95285,
    "lon": -84.30586
  },
  "MT VERNON RD @ CEDAR CHASE": {
    "stationID": "MT VERNON RD @ CEDAR CHASE",
    "stationName": "Mt Vernon Rd @ Cedar Chase",
    "destinations": {},
    "lat": 33.95641,
    "lon": -84.30397
  },
  "JETT FERRY RD @ MT VERNON RD": {
    "stationID": "JETT FERRY RD @ MT VERNON RD",
    "stationName": "Jett Ferry Rd @ Mt Vernon Rd",
    "destinations": {},
    "lat": 33.95825,
    "lon": -84.30246
  },
  "MT VERNON RD @ JETT FERRY RD": {
    "stationID": "MT VERNON RD @ JETT FERRY RD",
    "stationName": "Mt Vernon Rd @ Jett Ferry Rd",
    "destinations": {},
    "lat": 33.95798,
    "lon": -84.30187
  },
  "TILLY MILL RD@HOLLAND CT": {
    "stationID": "TILLY MILL RD@HOLLAND CT",
    "stationName": "Tilly Mill Rd@holland Ct",
    "destinations": {},
    "lat": 33.9494,
    "lon": -84.30508
  },
  "PEELER RD@GLENBONNIE DR": {
    "stationID": "PEELER RD@GLENBONNIE DR",
    "stationName": "Peeler Rd@glenbonnie Dr",
    "destinations": {},
    "lat": 33.93699,
    "lon": -84.28646
  },
  "PEELER RD@EDISON RD": {
    "stationID": "PEELER RD@EDISON RD",
    "stationName": "Peeler Rd@edison Rd",
    "destinations": {},
    "lat": 33.93724,
    "lon": -84.28559
  },
  "PEELER RD@HAPPY HOLLOW RD": {
    "stationID": "PEELER RD@HAPPY HOLLOW RD",
    "stationName": "Peeler Rd@happy Hollow Rd",
    "destinations": {},
    "lat": 33.93917,
    "lon": -84.28299
  },
  "PEELER RD@LAKESIDE DR": {
    "stationID": "PEELER RD@LAKESIDE DR",
    "stationName": "Peeler Rd@lakeside Dr",
    "destinations": {},
    "lat": 33.93985,
    "lon": -84.27846
  },
  "PEELER RD@FOUR OAKS CT": {
    "stationID": "PEELER RD@FOUR OAKS CT",
    "stationName": "Peeler Rd@four Oaks Ct",
    "destinations": {},
    "lat": 33.94046,
    "lon": -84.27462
  },
  "WINTERS CHAPEL RD @ PEELER RD": {
    "stationID": "WINTERS CHAPEL RD @ PEELER RD",
    "stationName": "Winters Chapel Rd @ Peeler Rd",
    "destinations": {},
    "lat": 33.94117,
    "lon": -84.2708
  },
  "WINTERS CHAPEL RD@4920": {
    "stationID": "WINTERS CHAPEL RD@4920",
    "stationName": "Winters Chapel Rd@4920",
    "destinations": {},
    "lat": 33.93911,
    "lon": -84.26921
  },
  "WINTERS CHAPEL RD @ WOMACK DR": {
    "stationID": "WINTERS CHAPEL RD @ WOMACK DR",
    "stationName": "Winters Chapel Rd @ Womack Dr",
    "destinations": {},
    "lat": 33.93541,
    "lon": -84.26684
  },
  "WINTERS CHAPEL RD @ 4739": {
    "stationID": "WINTERS CHAPEL RD @ 4739",
    "stationName": "Winters Chapel Rd @ 4739",
    "destinations": {},
    "lat": 33.93393,
    "lon": -84.26611
  },
  "PEELER RD@VILLAGE MILL RD": {
    "stationID": "PEELER RD@VILLAGE MILL RD",
    "stationName": "Peeler Rd@village Mill Rd",
    "destinations": {},
    "lat": 33.93157,
    "lon": -84.30959
  },
  "PEELER RD @ ADAMS RD": {
    "stationID": "PEELER RD @ ADAMS RD",
    "stationName": "Peeler Rd @ Adams Rd",
    "destinations": {},
    "lat": 33.93493,
    "lon": -84.30625
  },
  "PEELER RD@EQUESTRIAN WAY": {
    "stationID": "PEELER RD@EQUESTRIAN WAY",
    "stationName": "Peeler Rd@equestrian Way",
    "destinations": {},
    "lat": 33.93477,
    "lon": -84.3066
  },
  "PEELER RD@CHERRING DR": {
    "stationID": "PEELER RD@CHERRING DR",
    "stationName": "Peeler Rd@cherring Dr",
    "destinations": {},
    "lat": 33.9358,
    "lon": -84.29876
  },
  "TILLY MILL RD @ N PEACHTREE RD": {
    "stationID": "TILLY MILL RD @ N PEACHTREE RD",
    "stationName": "Tilly Mill Rd @ N Peachtree Rd",
    "destinations": {},
    "lat": 33.93668,
    "lon": -84.29403
  },
  "TILLY MILL RD @ WOMACK RD": {
    "stationID": "TILLY MILL RD @ WOMACK RD",
    "stationName": "Tilly Mill Rd @ Womack Rd",
    "destinations": {},
    "lat": 33.94348,
    "lon": -84.29999
  },
  "TILLY MILL RD@MT VERNON RD": {
    "stationID": "TILLY MILL RD@MT VERNON RD",
    "stationName": "Tilly Mill Rd@mt Vernon Rd",
    "destinations": {},
    "lat": 33.95491,
    "lon": -84.3054
  },
  "DUNWOODY CLUB DR @ MT VERNON RD": {
    "stationID": "DUNWOODY CLUB DR @ MT VERNON RD",
    "stationName": "Dunwoody Club Dr @ Mt Vernon Rd",
    "destinations": {},
    "lat": 33.95932,
    "lon": -84.3002
  },
  "N PEACHTREE RD @ BARCLAY DR": {
    "stationID": "N PEACHTREE RD @ BARCLAY DR",
    "stationName": "N Peachtree Rd @ Barclay Dr",
    "destinations": {},
    "lat": 33.93384,
    "lon": -84.29474
  },
  "N PEACHTREE RD @ PEACHFORD RD": {
    "stationID": "N PEACHTREE RD @ PEACHFORD RD",
    "stationName": "N Peachtree Rd @ Peachford Rd",
    "destinations": {},
    "lat": 33.92902,
    "lon": -84.29534
  },
  "N PEACHTREE RD@BROOKHURST DR": {
    "stationID": "N PEACHTREE RD@BROOKHURST DR",
    "stationName": "N Peachtree Rd@brookhurst Dr",
    "destinations": {},
    "lat": 33.9267,
    "lon": -84.2956
  },
  "PEELER RD@OLDE VILLAGE LN": {
    "stationID": "PEELER RD@OLDE VILLAGE LN",
    "stationName": "Peeler Rd@olde Village Ln",
    "destinations": {},
    "lat": 33.93412,
    "lon": -84.30777
  },
  "PEELER RD@INDEPENDENCE SQ": {
    "stationID": "PEELER RD@INDEPENDENCE SQ",
    "stationName": "Peeler Rd@independence Sq",
    "destinations": {},
    "lat": 33.93009,
    "lon": -84.31149
  },
  "PEELER RD@CHERRING LN": {
    "stationID": "PEELER RD@CHERRING LN",
    "stationName": "Peeler Rd@cherring Ln",
    "destinations": {},
    "lat": 33.93584,
    "lon": -84.2959
  },
  "RIVEREDGE PKY NW @ 1600": {
    "stationID": "RIVEREDGE PKY NW @ 1600",
    "stationName": "Riveredge Pky Nw @ 1600",
    "destinations": {},
    "lat": 33.90773,
    "lon": -84.43808
  },
  "NORTHSIDE DR@INTERSTATE NORTH PKY": {
    "stationID": "NORTHSIDE DR@INTERSTATE NORTH PKY",
    "stationName": "Northside Dr@interstate North Pky",
    "destinations": {},
    "lat": 33.90863,
    "lon": -84.43296
  },
  "INTERSTATE NORTH PKY @ 5665": {
    "stationID": "INTERSTATE NORTH PKY @ 5665",
    "stationName": "Interstate North Pky @ 5665",
    "destinations": {},
    "lat": 33.90936,
    "lon": -84.43175
  },
  "HAMMOND DR NE@KAYRON DR": {
    "stationID": "HAMMOND DR NE@KAYRON DR",
    "stationName": "Hammond Dr Ne@kayron Dr",
    "destinations": {},
    "lat": 33.91904,
    "lon": -84.3718
  },
  "HAMMOND DR@KAYRON DR": {
    "stationID": "HAMMOND DR@KAYRON DR",
    "stationName": "Hammond Dr@kayron Dr",
    "destinations": {},
    "lat": 33.91909,
    "lon": -84.37162
  },
  "JOHNSON FERRY RD NE@GLENRIDGE DR NE": {
    "stationID": "JOHNSON FERRY RD NE@GLENRIDGE DR NE",
    "stationName": "Johnson Ferry Rd Ne@glenridge Dr Ne",
    "destinations": {},
    "lat": 33.92218,
    "lon": -84.36758
  },
  "JOHNSON FERRY RD NE @ GLENRIDGE DR NE": {
    "stationID": "JOHNSON FERRY RD NE @ GLENRIDGE DR NE",
    "stationName": "Johnson Ferry Rd Ne @ Glenridge Dr Ne",
    "destinations": {},
    "lat": 33.92243,
    "lon": -84.368
  },
  "ROSWELL RD NE @ STEWART DR NE": {
    "stationID": "ROSWELL RD NE @ STEWART DR NE",
    "stationName": "Roswell Rd Ne @ Stewart Dr Ne",
    "destinations": {},
    "lat": 33.90163,
    "lon": -84.37916
  },
  "ROSWELL RD NE @ GLENRIDGE DR NE": {
    "stationID": "ROSWELL RD NE @ GLENRIDGE DR NE",
    "stationName": "Roswell Rd Ne @ Glenridge Dr Ne",
    "destinations": {},
    "lat": 33.90342,
    "lon": -84.37841
  },
  "ROSWELL RD NE @ 5600": {
    "stationID": "ROSWELL RD NE @ 5600",
    "stationName": "Roswell Rd Ne @ 5600",
    "destinations": {},
    "lat": 33.90564,
    "lon": -84.37873
  },
  "ROSWELL RD NE @ 5630": {
    "stationID": "ROSWELL RD NE @ 5630",
    "stationName": "Roswell Rd Ne @ 5630",
    "destinations": {},
    "lat": 33.90723,
    "lon": -84.37872
  },
  "ROSWELL RD NE @ LAKE PLACID DR NE": {
    "stationID": "ROSWELL RD NE @ LAKE PLACID DR NE",
    "stationName": "Roswell Rd Ne @ Lake Placid Dr Ne",
    "destinations": {},
    "lat": 33.90952,
    "lon": -84.37865
  },
  "ROSWELL RD NE @ ALLEN RD": {
    "stationID": "ROSWELL RD NE @ ALLEN RD",
    "stationName": "Roswell Rd Ne @ Allen Rd",
    "destinations": {},
    "lat": 33.91372,
    "lon": -84.37955
  },
  "ROSWELL RD NE @ HAMMOND DR NE": {
    "stationID": "ROSWELL RD NE @ HAMMOND DR NE",
    "stationName": "Roswell Rd Ne @ Hammond Dr Ne",
    "destinations": {},
    "lat": 33.91857,
    "lon": -84.37918
  },
  "ROSWELL RD NE @ HILDERBRAND DR NE": {
    "stationID": "ROSWELL RD NE @ HILDERBRAND DR NE",
    "stationName": "Roswell Rd Ne @ Hilderbrand Dr Ne",
    "destinations": {},
    "lat": 33.92284,
    "lon": -84.37909
  },
  "ROSWELL RD NE @ SANDY SPRINGS CIR NE": {
    "stationID": "ROSWELL RD NE @ SANDY SPRINGS CIR NE",
    "stationName": "Roswell Rd Ne @ Sandy Springs Cir Ne",
    "destinations": {},
    "lat": 33.92701,
    "lon": -84.37941
  },
  "HAMMOND DR NE @ ROSWELL RD": {
    "stationID": "HAMMOND DR NE @ ROSWELL RD",
    "stationName": "Hammond Dr Ne @ Roswell Rd",
    "destinations": {},
    "lat": 33.91918,
    "lon": -84.37878
  },
  "ROSWELL RD @ JOHNSON FERRY RD": {
    "stationID": "ROSWELL RD @ JOHNSON FERRY RD",
    "stationName": "Roswell Rd @ Johnson Ferry Rd",
    "destinations": {},
    "lat": 33.92519,
    "lon": -84.37911
  },
  "ROSWELL RD NE @ CROMWELL RD NE": {
    "stationID": "ROSWELL RD NE @ CROMWELL RD NE",
    "stationName": "Roswell Rd Ne @ Cromwell Rd Ne",
    "destinations": {},
    "lat": 33.92914,
    "lon": -84.37946
  },
  "ROSWELL RD NE @ ALLEN RD NE": {
    "stationID": "ROSWELL RD NE @ ALLEN RD NE",
    "stationName": "Roswell Rd Ne @ Allen Rd Ne",
    "destinations": {},
    "lat": 33.91402,
    "lon": -84.37924
  },
  "ROSWELL RD NE @ CARPENTER DR NE": {
    "stationID": "ROSWELL RD NE @ CARPENTER DR NE",
    "stationName": "Roswell Rd Ne @ Carpenter Dr Ne",
    "destinations": {},
    "lat": 33.91528,
    "lon": -84.37923
  },
  "ROSWELL RD NE @ 5925": {
    "stationID": "ROSWELL RD NE @ 5925",
    "stationName": "Roswell Rd Ne @ 5925",
    "destinations": {},
    "lat": 33.91752,
    "lon": -84.37904
  },
  "ROSWELL RD NE@HAMMOND DR NE": {
    "stationID": "ROSWELL RD NE@HAMMOND DR NE",
    "stationName": "Roswell Rd Ne@hammond Dr Ne",
    "destinations": {},
    "lat": 33.91862,
    "lon": -84.37894
  },
  "ROSWELL RD NE @ SANDY SPRINGS PL NE": {
    "stationID": "ROSWELL RD NE @ SANDY SPRINGS PL NE",
    "stationName": "Roswell Rd Ne @ Sandy Springs Pl Ne",
    "destinations": {},
    "lat": 33.92011,
    "lon": -84.37904
  },
  "ROSWELL RD NE @ MT VERNON HWY NE": {
    "stationID": "ROSWELL RD NE @ MT VERNON HWY NE",
    "stationName": "Roswell Rd Ne @ Mt Vernon Hwy Ne",
    "destinations": {},
    "lat": 33.92404,
    "lon": -84.37901
  },
  "ROSWELL RD NE@JOHNSON FERRY RD NE": {
    "stationID": "ROSWELL RD NE@JOHNSON FERRY RD NE",
    "stationName": "Roswell Rd Ne@johnson Ferry Rd Ne",
    "destinations": {},
    "lat": 33.92537,
    "lon": -84.37901
  },
  "ROSWELL RD NE@SANDY SPRINGS CIR NE": {
    "stationID": "ROSWELL RD NE@SANDY SPRINGS CIR NE",
    "stationName": "Roswell Rd Ne@sandy Springs Cir Ne",
    "destinations": {},
    "lat": 33.92717,
    "lon": -84.37906
  },
  "ROSWELL RD NE @ VERNON WOODS DR NE": {
    "stationID": "ROSWELL RD NE @ VERNON WOODS DR NE",
    "stationName": "Roswell Rd Ne @ Vernon Woods Dr Ne",
    "destinations": {},
    "lat": 33.92931,
    "lon": -84.37919
  },
  "ROSWELL RD NE @ 6509": {
    "stationID": "ROSWELL RD NE @ 6509",
    "stationName": "Roswell Rd Ne @ 6509",
    "destinations": {},
    "lat": 33.93442,
    "lon": -84.37972
  },
  "ROSWELL RD NE @ CLIFTWOOD DR NE": {
    "stationID": "ROSWELL RD NE @ CLIFTWOOD DR NE",
    "stationName": "Roswell Rd Ne @ Cliftwood Dr Ne",
    "destinations": {},
    "lat": 33.91624,
    "lon": -84.37924
  },
  "MT VERNON HWY @ BOYLSTON DR": {
    "stationID": "MT VERNON HWY @ BOYLSTON DR",
    "stationName": "Mt Vernon Hwy @ Boylston Dr",
    "destinations": {},
    "lat": 33.92433,
    "lon": -84.37746
  },
  "JOHNSON FERRY RD@KAYRON DR": {
    "stationID": "JOHNSON FERRY RD@KAYRON DR",
    "stationName": "Johnson Ferry Rd@kayron Dr",
    "destinations": {},
    "lat": 33.92304,
    "lon": -84.37064
  },
  "JOHNSON FERRY RD @ KAYRON DR": {
    "stationID": "JOHNSON FERRY RD @ KAYRON DR",
    "stationName": "Johnson Ferry Rd @ Kayron Dr",
    "destinations": {},
    "lat": 33.92316,
    "lon": -84.3708
  },
  "ROSWELL RD NE @ PERUCA PL NE": {
    "stationID": "ROSWELL RD NE @ PERUCA PL NE",
    "stationName": "Roswell Rd Ne @ Peruca Pl Ne",
    "destinations": {},
    "lat": 33.906,
    "lon": -84.37857
  },
  "MT VERNON HWY NW @ HAMMOND DR NW": {
    "stationID": "MT VERNON HWY NW @ HAMMOND DR NW",
    "stationName": "Mt Vernon Hwy Nw @ Hammond Dr Nw",
    "destinations": {},
    "lat": 33.91942,
    "lon": -84.39106
  },
  "JOHNSON FERRY RD@MT VERNON HWY": {
    "stationID": "JOHNSON FERRY RD@MT VERNON HWY",
    "stationName": "Johnson Ferry Rd@mt Vernon Hwy",
    "destinations": {},
    "lat": 33.92417,
    "lon": -84.37604
  },
  "JOHNSON FERRY RD NE @ ROSWELL RD": {
    "stationID": "JOHNSON FERRY RD NE @ ROSWELL RD",
    "stationName": "Johnson Ferry Rd Ne @ Roswell Rd",
    "destinations": {},
    "lat": 33.92464,
    "lon": -84.3776
  },
  "JOHNSON FERRY RD@HARLESTON RD": {
    "stationID": "JOHNSON FERRY RD@HARLESTON RD",
    "stationName": "Johnson Ferry Rd@harleston Rd",
    "destinations": {},
    "lat": 33.92367,
    "lon": -84.37495
  },
  "HAMMOND DR@BOYLSTON DR": {
    "stationID": "HAMMOND DR@BOYLSTON DR",
    "stationName": "Hammond Dr@boylston Dr",
    "destinations": {},
    "lat": 33.91922,
    "lon": -84.37644
  },
  "HAMMOND DR @ BOYLSTON DR": {
    "stationID": "HAMMOND DR @ BOYLSTON DR",
    "stationName": "Hammond Dr @ Boylston Dr",
    "destinations": {},
    "lat": 33.91904,
    "lon": -84.3769
  },
  "HAMMOND DR NE @ GLENRIDGE DR NE": {
    "stationID": "HAMMOND DR NE @ GLENRIDGE DR NE",
    "stationName": "Hammond Dr Ne @ Glenridge Dr Ne",
    "destinations": {},
    "lat": 33.91892,
    "lon": -84.36327
  },
  "HAMMOND DR @ CONCOURSE PKWY": {
    "stationID": "HAMMOND DR @ CONCOURSE PKWY",
    "stationName": "Hammond Dr @ Concourse Pkwy",
    "destinations": {},
    "lat": 33.91897,
    "lon": -84.35273
  },
  "HAMMOND DR NE @ CONCOURSE PKWY": {
    "stationID": "HAMMOND DR NE @ CONCOURSE PKWY",
    "stationName": "Hammond Dr Ne @ Concourse Pkwy",
    "destinations": {},
    "lat": 33.9189,
    "lon": -84.35467
  },
  "HAMMOND DR @ PEACHTREE DUNWOODY RD": {
    "stationID": "HAMMOND DR @ PEACHTREE DUNWOODY RD",
    "stationName": "Hammond Dr @ Peachtree Dunwoody Rd",
    "destinations": {},
    "lat": 33.91869,
    "lon": -84.34995
  },
  "ASHFORD DUNWOODY RD @ RAVINIA DR": {
    "stationID": "ASHFORD DUNWOODY RD @ RAVINIA DR",
    "stationName": "Ashford Dunwoody Rd @ Ravinia Dr",
    "destinations": {},
    "lat": 33.92221,
    "lon": -84.33883
  },
  "PEACHTREE DUNWOODY RD @ HOLLIS COBB CIR": {
    "stationID": "PEACHTREE DUNWOODY RD @ HOLLIS COBB CIR",
    "stationName": "Peachtree Dunwoody Rd @ Hollis Cobb Cir",
    "destinations": {},
    "lat": 33.90943,
    "lon": -84.35226
  },
  "ASHFORD DUNWOODY RD NE@RAVINIA DR": {
    "stationID": "ASHFORD DUNWOODY RD NE@RAVINIA DR",
    "stationName": "Ashford Dunwoody Rd Ne@ravinia Dr",
    "destinations": {},
    "lat": 33.92098,
    "lon": -84.33879
  },
  "PERIMETER CTR E @ ASHFORD DUNWOODY": {
    "stationID": "PERIMETER CTR E @ ASHFORD DUNWOODY",
    "stationName": "Perimeter Ctr E @ Ashford Dunwoody",
    "destinations": {},
    "lat": 33.92616,
    "lon": -84.3367
  },
  "PERIMETER CTR E @ ASHFORD DUNWOODY RD": {
    "stationID": "PERIMETER CTR E @ ASHFORD DUNWOODY RD",
    "stationName": "Perimeter Ctr E @ Ashford Dunwoody Rd",
    "destinations": {},
    "lat": 33.92357,
    "lon": -84.33782
  },
  "PEACHTREE DUNWOODY RD @ JOHNSON FERRY RD": {
    "stationID": "PEACHTREE DUNWOODY RD @ JOHNSON FERRY RD",
    "stationName": "Peachtree Dunwoody Rd @ Johnson Ferry Rd",
    "destinations": {},
    "lat": 33.90745,
    "lon": -84.35239
  },
  "HAMMOND DR NE @ PEACHTREE DUNWOODY RD": {
    "stationID": "HAMMOND DR NE @ PEACHTREE DUNWOODY RD",
    "stationName": "Hammond Dr Ne @ Peachtree Dunwoody Rd",
    "destinations": {},
    "lat": 33.9189,
    "lon": -84.34989
  },
  "CHAMBLEE DUNWOODY RD @ CLAIRVIEW DR": {
    "stationID": "CHAMBLEE DUNWOODY RD @ CLAIRVIEW DR",
    "stationName": "Chamblee Dunwoody Rd @ Clairview Dr",
    "destinations": {},
    "lat": 33.89054,
    "lon": -84.28915
  },
  "HAMMOND DR NE @ BARFIELD RD NE": {
    "stationID": "HAMMOND DR NE @ BARFIELD RD NE",
    "stationName": "Hammond Dr Ne @ Barfield Rd Ne",
    "destinations": {},
    "lat": 33.91911,
    "lon": -84.36034
  },
  "PERIMETER CTR E @ LINCOLN PKY E": {
    "stationID": "PERIMETER CTR E @ LINCOLN PKY E",
    "stationName": "Perimeter Ctr E @ Lincoln Pky E",
    "destinations": {},
    "lat": 33.9221,
    "lon": -84.3301
  },
  "HAMMOND DR@GLENRIDGE DR": {
    "stationID": "HAMMOND DR@GLENRIDGE DR",
    "stationName": "Hammond Dr@glenridge Dr",
    "destinations": {},
    "lat": 33.91906,
    "lon": -84.36394
  },
  "HAMMOND DR NE @ BARFIELD RD": {
    "stationID": "HAMMOND DR NE @ BARFIELD RD",
    "stationName": "Hammond Dr Ne @ Barfield Rd",
    "destinations": {},
    "lat": 33.91894,
    "lon": -84.36043
  },
  "PERIMETER CTR E @ 74": {
    "stationID": "PERIMETER CTR E @ 74",
    "stationName": "Perimeter Ctr E @ 74",
    "destinations": {},
    "lat": 33.92357,
    "lon": -84.33457
  },
  "PERIMETER CTR E @ 64": {
    "stationID": "PERIMETER CTR E @ 64",
    "stationName": "Perimeter Ctr E @ 64",
    "destinations": {},
    "lat": 33.92149,
    "lon": -84.33201
  },
  "PERIMETER CTR E @ 24": {
    "stationID": "PERIMETER CTR E @ 24",
    "stationName": "Perimeter Ctr E @ 24",
    "destinations": {},
    "lat": 33.92562,
    "lon": -84.33065
  },
  "PERIMETER CTR E @ 50": {
    "stationID": "PERIMETER CTR E @ 50",
    "stationName": "Perimeter Ctr E @ 50",
    "destinations": {},
    "lat": 33.92438,
    "lon": -84.32982
  },
  "PERIMETER CTR E @ 72": {
    "stationID": "PERIMETER CTR E @ 72",
    "stationName": "Perimeter Ctr E @ 72",
    "destinations": {},
    "lat": 33.92389,
    "lon": -84.33446
  },
  "PERIMETER CTR E @ 14": {
    "stationID": "PERIMETER CTR E @ 14",
    "stationName": "Perimeter Ctr E @ 14",
    "destinations": {},
    "lat": 33.92567,
    "lon": -84.33264
  },
  "PERIMETER CTR E @ 53": {
    "stationID": "PERIMETER CTR E @ 53",
    "stationName": "Perimeter Ctr E @ 53",
    "destinations": {},
    "lat": 33.92157,
    "lon": -84.33176
  },
  "N PEACHTREE RD @ PEACHTREE INDUSTRIAL": {
    "stationID": "N PEACHTREE RD @ PEACHTREE INDUSTRIAL",
    "stationName": "N Peachtree Rd @ Peachtree Industrial",
    "destinations": {},
    "lat": 33.90451,
    "lon": -84.29514
  },
  "N PEACHTREE RD @ 3930": {
    "stationID": "N PEACHTREE RD @ 3930",
    "stationName": "N Peachtree Rd @ 3930",
    "destinations": {},
    "lat": 33.90787,
    "lon": -84.29627
  },
  "DUNWOODY PARK @ N SHALLOWFORD RD": {
    "stationID": "DUNWOODY PARK @ N SHALLOWFORD RD",
    "stationName": "Dunwoody Park @ N Shallowford Rd",
    "destinations": {},
    "lat": 33.92607,
    "lon": -84.31096
  },
  "N PEACHTREE RD @ N SHALLOWFORD RD": {
    "stationID": "N PEACHTREE RD @ N SHALLOWFORD RD",
    "stationName": "N Peachtree Rd @ N Shallowford Rd",
    "destinations": {},
    "lat": 33.91142,
    "lon": -84.29831
  },
  "N PEACHTREE RD @ SPRING WALK CT": {
    "stationID": "N PEACHTREE RD @ SPRING WALK CT",
    "stationName": "N Peachtree Rd @ Spring Walk Ct",
    "destinations": {},
    "lat": 33.91265,
    "lon": -84.299
  },
  "DUNWOODY PARK @ CHAMBLEE DUNWOODY RD": {
    "stationID": "DUNWOODY PARK @ CHAMBLEE DUNWOODY RD",
    "stationName": "Dunwoody Park @ Chamblee Dunwoody Rd",
    "destinations": {},
    "lat": 33.92408,
    "lon": -84.31471
  },
  "N PEACHTREE RD @ TALLEY DR": {
    "stationID": "N PEACHTREE RD @ TALLEY DR",
    "stationName": "N Peachtree Rd @ Talley Dr",
    "destinations": {},
    "lat": 33.89865,
    "lon": -84.29407
  },
  "N PEACHTREE RD @ TERRELL DR": {
    "stationID": "N PEACHTREE RD @ TERRELL DR",
    "stationName": "N Peachtree Rd @ Terrell Dr",
    "destinations": {},
    "lat": 33.90139,
    "lon": -84.29433
  },
  "DUNWOODY PARK DR @ DUNWOODY PARK N": {
    "stationID": "DUNWOODY PARK DR @ DUNWOODY PARK N",
    "stationName": "Dunwoody Park Dr @ Dunwoody Park N",
    "destinations": {},
    "lat": 33.92405,
    "lon": -84.3139
  },
  "N PEACHTREE RD @ PEACHTREE INDUSTRIAL BLVD": {
    "stationID": "N PEACHTREE RD @ PEACHTREE INDUSTRIAL BLVD",
    "stationName": "N Peachtree Rd @ Peachtree Industrial Blvd",
    "destinations": {},
    "lat": 33.90586,
    "lon": -84.29595
  },
  "N PEACHTREE RD @ PLANTATION LN": {
    "stationID": "N PEACHTREE RD @ PLANTATION LN",
    "stationName": "N Peachtree Rd @ Plantation Ln",
    "destinations": {},
    "lat": 33.90962,
    "lon": -84.29707
  },
  "N PEACHTREE RD @ PERIMETER PARK DR": {
    "stationID": "N PEACHTREE RD @ PERIMETER PARK DR",
    "stationName": "N Peachtree Rd @ Perimeter Park Dr",
    "destinations": {},
    "lat": 33.91718,
    "lon": -84.29858
  },
  "N PEACHTREE RD @ SAVOY DR": {
    "stationID": "N PEACHTREE RD @ SAVOY DR",
    "stationName": "N Peachtree Rd @ Savoy Dr",
    "destinations": {},
    "lat": 33.91888,
    "lon": -84.29733
  },
  "N PEACHTREE RD@DUNWOODY XING": {
    "stationID": "N PEACHTREE RD@DUNWOODY XING",
    "stationName": "N Peachtree Rd@dunwoody Xing",
    "destinations": {},
    "lat": 33.92205,
    "lon": -84.29675
  },
  "N PEACHTREE RD @ KINGS POINT CIR": {
    "stationID": "N PEACHTREE RD @ KINGS POINT CIR",
    "stationName": "N Peachtree Rd @ Kings Point Cir",
    "destinations": {},
    "lat": 33.92356,
    "lon": -84.29591
  },
  "N PEACHTREE RD @ BROOKHURST DR": {
    "stationID": "N PEACHTREE RD @ BROOKHURST DR",
    "stationName": "N Peachtree Rd @ Brookhurst Dr",
    "destinations": {},
    "lat": 33.92626,
    "lon": -84.29521
  },
  "CHAMBLEE DUNWOODY RD @ N SHALLOWFORD RD": {
    "stationID": "CHAMBLEE DUNWOODY RD @ N SHALLOWFORD RD",
    "stationName": "Chamblee Dunwoody Rd @ N Shallowford Rd",
    "destinations": {},
    "lat": 33.92782,
    "lon": -84.31487
  },
  "N SHALLOWFORD RD @ COMMODORE DR": {
    "stationID": "N SHALLOWFORD RD @ COMMODORE DR",
    "stationName": "N Shallowford Rd @ Commodore Dr",
    "destinations": {},
    "lat": 33.91766,
    "lon": -84.30379
  },
  "SHALLOWFORD RD@SAVOY DR": {
    "stationID": "SHALLOWFORD RD@SAVOY DR",
    "stationName": "Shallowford Rd@savoy Dr",
    "destinations": {},
    "lat": 33.91966,
    "lon": -84.30501
  },
  "N SHALLOWFORD RD @ SAVOY DR": {
    "stationID": "N SHALLOWFORD RD @ SAVOY DR",
    "stationName": "N Shallowford Rd @ Savoy Dr",
    "destinations": {},
    "lat": 33.91969,
    "lon": -84.30494
  },
  "N SHALLOWFORD RD @ COTILLION DR": {
    "stationID": "N SHALLOWFORD RD @ COTILLION DR",
    "stationName": "N Shallowford Rd @ Cotillion Dr",
    "destinations": {},
    "lat": 33.92117,
    "lon": -84.30543
  },
  "SHALLOWFORD RD@COTILLION DR": {
    "stationID": "SHALLOWFORD RD@COTILLION DR",
    "stationName": "Shallowford Rd@cotillion Dr",
    "destinations": {},
    "lat": 33.92125,
    "lon": -84.30558
  },
  "N SHALLOWFORD RD @ PEACHFORD RD": {
    "stationID": "N SHALLOWFORD RD @ PEACHFORD RD",
    "stationName": "N Shallowford Rd @ Peachford Rd",
    "destinations": {},
    "lat": 33.92419,
    "lon": -84.3079
  },
  "N SHALLOWFORD RD @ 4500": {
    "stationID": "N SHALLOWFORD RD @ 4500",
    "stationName": "N Shallowford Rd @ 4500",
    "destinations": {},
    "lat": 33.92492,
    "lon": -84.30808
  },
  "N SHALLOWFORD RD@PERNOSHALL CT": {
    "stationID": "N SHALLOWFORD RD@PERNOSHALL CT",
    "stationName": "N Shallowford Rd@pernoshall Ct",
    "destinations": {},
    "lat": 33.92553,
    "lon": -84.30891
  },
  "N SHALLOWFORD RD @ PERNOSHALL CT": {
    "stationID": "N SHALLOWFORD RD @ PERNOSHALL CT",
    "stationName": "N Shallowford Rd @ Pernoshall Ct",
    "destinations": {},
    "lat": 33.92575,
    "lon": -84.30895
  },
  "PEELER RD @ SHALLOWFORD RD": {
    "stationID": "PEELER RD @ SHALLOWFORD RD",
    "stationName": "Peeler Rd @ Shallowford Rd",
    "destinations": {},
    "lat": 33.9297,
    "lon": -84.31334
  },
  "SHALLOWFORD RD@PEACHFORD RD": {
    "stationID": "SHALLOWFORD RD@PEACHFORD RD",
    "stationName": "Shallowford Rd@peachford Rd",
    "destinations": {},
    "lat": 33.92326,
    "lon": -84.30694
  },
  "N PEACHTREE RD @ N HILL PKY": {
    "stationID": "N PEACHTREE RD @ N HILL PKY",
    "stationName": "N Peachtree Rd @ N Hill Pky",
    "destinations": {},
    "lat": 33.91372,
    "lon": -84.2991
  },
  "N PEACHTREE RD @ DUNWOODY XING": {
    "stationID": "N PEACHTREE RD @ DUNWOODY XING",
    "stationName": "N Peachtree Rd @ Dunwoody Xing",
    "destinations": {},
    "lat": 33.92216,
    "lon": -84.29628
  },
  "N PEACHTREE RD@FOREST TRL": {
    "stationID": "N PEACHTREE RD@FOREST TRL",
    "stationName": "N Peachtree Rd@forest Trl",
    "destinations": {},
    "lat": 33.92421,
    "lon": -84.2962
  },
  "PEACHTREE RD @ INGERSOLL RAND DR": {
    "stationID": "PEACHTREE RD @ INGERSOLL RAND DR",
    "stationName": "Peachtree Rd @ Ingersoll Rand Dr",
    "destinations": {},
    "lat": 33.89534,
    "lon": -84.29571
  },
  "N PEACHTREE RD @ GENTRYS WALK": {
    "stationID": "N PEACHTREE RD @ GENTRYS WALK",
    "stationName": "N Peachtree Rd @ Gentrys Walk",
    "destinations": {},
    "lat": 33.91657,
    "lon": -84.29946
  },
  "PARK AVE @ BUFORD HWY NE": {
    "stationID": "PARK AVE @ BUFORD HWY NE",
    "stationName": "Park Ave @ Buford Hwy Ne",
    "destinations": {},
    "lat": 33.90089,
    "lon": -84.27897
  },
  "WOODWIN RD @ TILLY MILL RD": {
    "stationID": "WOODWIN RD @ TILLY MILL RD",
    "stationName": "Woodwin Rd @ Tilly Mill Rd",
    "destinations": {},
    "lat": 33.91891,
    "lon": -84.27988
  },
  "TILLY MILL RD @ PEACHTREE INDUSTRIAL BLVD": {
    "stationID": "TILLY MILL RD @ PEACHTREE INDUSTRIAL BLVD",
    "stationName": "Tilly Mill Rd @ Peachtree Industrial Blvd",
    "destinations": {},
    "lat": 33.9246,
    "lon": -84.2821
  },
  "PEACHTREE INDUSTRIAL BLVD @ PEACHTREE SQ": {
    "stationID": "PEACHTREE INDUSTRIAL BLVD @ PEACHTREE SQ",
    "stationName": "Peachtree Industrial Blvd @ Peachtree Sq",
    "destinations": {},
    "lat": 33.9254,
    "lon": -84.27681
  },
  "WINTERS CHAPEL RD @ AMWILER RD NW": {
    "stationID": "WINTERS CHAPEL RD @ AMWILER RD NW",
    "stationName": "Winters Chapel Rd @ Amwiler Rd Nw",
    "destinations": {},
    "lat": 33.92939,
    "lon": -84.26505
  },
  "BUFORD HWY@5700": {
    "stationID": "BUFORD HWY@5700",
    "stationName": "Buford Hwy@5700",
    "destinations": {},
    "lat": 33.90647,
    "lon": -84.26985
  },
  "WINTERS CHAPEL RD @ CLARKE DR": {
    "stationID": "WINTERS CHAPEL RD @ CLARKE DR",
    "stationName": "Winters Chapel Rd @ Clarke Dr",
    "destinations": {},
    "lat": 33.92805,
    "lon": -84.26731
  },
  "BUFORD HWY NE @ CHESTNUT DR": {
    "stationID": "BUFORD HWY NE @ CHESTNUT DR",
    "stationName": "Buford Hwy Ne @ Chestnut Dr",
    "destinations": {},
    "lat": 33.90075,
    "lon": -84.2766
  },
  "WINTERS CHAPEL RD @ RENAISSANCE BLVD": {
    "stationID": "WINTERS CHAPEL RD @ RENAISSANCE BLVD",
    "stationName": "Winters Chapel Rd @ Renaissance Blvd",
    "destinations": {},
    "lat": 33.92633,
    "lon": -84.26926
  },
  "BUFORD HWY NE @ LONGMIRE WAY": {
    "stationID": "BUFORD HWY NE @ LONGMIRE WAY",
    "stationName": "Buford Hwy Ne @ Longmire Way",
    "destinations": {},
    "lat": 33.90508,
    "lon": -84.27129
  },
  "WINTERS CHAPEL RD @ HOMELAND DR": {
    "stationID": "WINTERS CHAPEL RD @ HOMELAND DR",
    "stationName": "Winters Chapel Rd @ Homeland Dr",
    "destinations": {},
    "lat": 33.92491,
    "lon": -84.27012
  },
  "OAKCLIFF RD @ BUFORD HWY": {
    "stationID": "OAKCLIFF RD @ BUFORD HWY",
    "stationName": "Oakcliff Rd @ Buford Hwy",
    "destinations": {},
    "lat": 33.91108,
    "lon": -84.26247
  },
  "WINTERS CHAPEL RD @ CHICOPEE RD": {
    "stationID": "WINTERS CHAPEL RD @ CHICOPEE RD",
    "stationName": "Winters Chapel Rd @ Chicopee Rd",
    "destinations": {},
    "lat": 33.9208,
    "lon": -84.27014
  },
  "WINTERS CHAPEL RD @ OAKCLIFF RD": {
    "stationID": "WINTERS CHAPEL RD @ OAKCLIFF RD",
    "stationName": "Winters Chapel Rd @ Oakcliff Rd",
    "destinations": {},
    "lat": 33.91902,
    "lon": -84.26971
  },
  "WOODWIN RD @ WINTERS CHAPEL RD": {
    "stationID": "WOODWIN RD @ WINTERS CHAPEL RD",
    "stationName": "Woodwin Rd @ Winters Chapel Rd",
    "destinations": {},
    "lat": 33.91494,
    "lon": -84.27038
  },
  "BUFORD HWY@MCELROY RD": {
    "stationID": "BUFORD HWY@MCELROY RD",
    "stationName": "Buford Hwy@mcelroy Rd",
    "destinations": {},
    "lat": 33.9089,
    "lon": -84.26686
  },
  "WOODWIN RD @ 2766": {
    "stationID": "WOODWIN RD @ 2766",
    "stationName": "Woodwin Rd @ 2766",
    "destinations": {},
    "lat": 33.9176,
    "lon": -84.27571
  },
  "PEACHTREE INDUSTRIAL BLVD @ JOHN GLENN DR": {
    "stationID": "PEACHTREE INDUSTRIAL BLVD @ JOHN GLENN DR",
    "stationName": "Peachtree Industrial Blvd @ John Glenn Dr",
    "destinations": {},
    "lat": 33.90564,
    "lon": -84.29452
  },
  "PEACHTREE INDUSTRIAL BLVD @ PEACHTREE RD": {
    "stationID": "PEACHTREE INDUSTRIAL BLVD @ PEACHTREE RD",
    "stationName": "Peachtree Industrial Blvd @ Peachtree Rd",
    "destinations": {},
    "lat": 33.90961,
    "lon": -84.29028
  },
  "TILLY MILL RD@STONINGTON RD": {
    "stationID": "TILLY MILL RD@STONINGTON RD",
    "stationName": "Tilly Mill Rd@stonington Rd",
    "destinations": {},
    "lat": 33.92635,
    "lon": -84.2827
  },
  "TILLY MILL RD@BINGHAMTON DR": {
    "stationID": "TILLY MILL RD@BINGHAMTON DR",
    "stationName": "Tilly Mill Rd@binghamton Dr",
    "destinations": {},
    "lat": 33.92745,
    "lon": -84.28316
  },
  "TILLY MILL RD@LAURELWOOD RD": {
    "stationID": "TILLY MILL RD@LAURELWOOD RD",
    "stationName": "Tilly Mill Rd@laurelwood Rd",
    "destinations": {},
    "lat": 33.92902,
    "lon": -84.28371
  },
  "TILLY MILL RD @ BRIERS NORTH DR": {
    "stationID": "TILLY MILL RD @ BRIERS NORTH DR",
    "stationName": "Tilly Mill Rd @ Briers North Dr",
    "destinations": {},
    "lat": 33.93255,
    "lon": -84.28521
  },
  "PEACHTREE INDUSTRIAL BLVD @ TILLY MILL RD": {
    "stationID": "PEACHTREE INDUSTRIAL BLVD @ TILLY MILL RD",
    "stationName": "Peachtree Industrial Blvd @ Tilly Mill Rd",
    "destinations": {},
    "lat": 33.92435,
    "lon": -84.28065
  },
  "PEACHTREE INDUSTRIAL BLVD @ HOMELAND DR": {
    "stationID": "PEACHTREE INDUSTRIAL BLVD @ HOMELAND DR",
    "stationName": "Peachtree Industrial Blvd @ Homeland Dr",
    "destinations": {},
    "lat": 33.9259,
    "lon": -84.27744
  },
  "PEACHTREE INDUSTRIAL BLVD@6706": {
    "stationID": "PEACHTREE INDUSTRIAL BLVD@6706",
    "stationName": "Peachtree Industrial Blvd@6706",
    "destinations": {},
    "lat": 33.92691,
    "lon": -84.27502
  },
  "PEACHTREE INDUSTRIAL BLVD @ PEACHTREE PLACE PKWY": {
    "stationID": "PEACHTREE INDUSTRIAL BLVD @ PEACHTREE PLACE PKWY",
    "stationName": "Peachtree Industrial Blvd @ Peachtree Place Pkwy",
    "destinations": {},
    "lat": 33.92999,
    "lon": -84.26784
  },
  "PEACHTREE IND BLVD @ N SHALLOWFORD RD": {
    "stationID": "PEACHTREE IND BLVD @ N SHALLOWFORD RD",
    "stationName": "Peachtree Ind Blvd @ N Shallowford Rd",
    "destinations": {},
    "lat": 33.90967,
    "lon": -84.29068
  },
  "PEACHTREE IND BLVD @ JOHN GLENN DR": {
    "stationID": "PEACHTREE IND BLVD @ JOHN GLENN DR",
    "stationName": "Peachtree Ind Blvd @ John Glenn Dr",
    "destinations": {},
    "lat": 33.90571,
    "lon": -84.29454
  },
  "NEW PEACHTREE RD @ 6145": {
    "stationID": "NEW PEACHTREE RD @ 6145",
    "stationName": "New Peachtree Rd @ 6145",
    "destinations": {},
    "lat": 33.90544,
    "lon": -84.27597
  },
  "NEW PEACHTREE RD @ LONGMIRE WAY": {
    "stationID": "NEW PEACHTREE RD @ LONGMIRE WAY",
    "stationName": "New Peachtree Rd @ Longmire Way",
    "destinations": {},
    "lat": 33.90745,
    "lon": -84.27363
  },
  "NEW PEACHTREE RD @ MCELROY RD": {
    "stationID": "NEW PEACHTREE RD @ MCELROY RD",
    "stationName": "New Peachtree Rd @ Mcelroy Rd",
    "destinations": {},
    "lat": 33.9111,
    "lon": -84.26757
  },
  "NEW PEACHTREE RD @ OAKCLIFF RD": {
    "stationID": "NEW PEACHTREE RD @ OAKCLIFF RD",
    "stationName": "New Peachtree Rd @ Oakcliff Rd",
    "destinations": {},
    "lat": 33.91166,
    "lon": -84.26599
  },
  "OAKCLIFF RD@3061": {
    "stationID": "OAKCLIFF RD@3061",
    "stationName": "Oakcliff Rd@3061",
    "destinations": {},
    "lat": 33.91101,
    "lon": -84.26272
  },
  "OAKCLIFF RD@PIN OAK CIR": {
    "stationID": "OAKCLIFF RD@PIN OAK CIR",
    "stationName": "Oakcliff Rd@pin Oak Cir",
    "destinations": {},
    "lat": 33.91024,
    "lon": -84.25939
  },
  "OAKCLIFF RD @ 3417": {
    "stationID": "OAKCLIFF RD @ 3417",
    "stationName": "Oakcliff Rd @ 3417",
    "destinations": {},
    "lat": 33.90498,
    "lon": -84.25453
  },
  "OAKCLIFF RD@OAKCLIFF INDUSTRIAL ST": {
    "stationID": "OAKCLIFF RD@OAKCLIFF INDUSTRIAL ST",
    "stationName": "Oakcliff Rd@oakcliff Industrial St",
    "destinations": {},
    "lat": 33.90276,
    "lon": -84.25334
  },
  "OAKCLIFF RD @ NORTHCREST RD": {
    "stationID": "OAKCLIFF RD @ NORTHCREST RD",
    "stationName": "Oakcliff Rd @ Northcrest Rd",
    "destinations": {},
    "lat": 33.90109,
    "lon": -84.25109
  },
  "OAKCLIFF RD@OAKCLIFF INDUSTRIAL CT": {
    "stationID": "OAKCLIFF RD@OAKCLIFF INDUSTRIAL CT",
    "stationName": "Oakcliff Rd@oakcliff Industrial Ct",
    "destinations": {},
    "lat": 33.90348,
    "lon": -84.24797
  },
  "OAKCLIFF RD @ PLEASANTDALE RD": {
    "stationID": "OAKCLIFF RD @ PLEASANTDALE RD",
    "stationName": "Oakcliff Rd @ Pleasantdale Rd",
    "destinations": {},
    "lat": 33.90429,
    "lon": -84.24711
  },
  "PLEASANTDALE RD @ 4126": {
    "stationID": "PLEASANTDALE RD @ 4126",
    "stationName": "Pleasantdale Rd @ 4126",
    "destinations": {},
    "lat": 33.90285,
    "lon": -84.24486
  },
  "OAKCLIFF RD@WINDSOR OAK DR": {
    "stationID": "OAKCLIFF RD@WINDSOR OAK DR",
    "stationName": "Oakcliff Rd@windsor Oak Dr",
    "destinations": {},
    "lat": 33.91037,
    "lon": -84.25968
  },
  "OAKCLIFF RD@3420": {
    "stationID": "OAKCLIFF RD@3420",
    "stationName": "Oakcliff Rd@3420",
    "destinations": {},
    "lat": 33.90396,
    "lon": -84.25404
  },
  "OAKCLIFF RD @ OAKCLIFF INDUSTRIAL ST": {
    "stationID": "OAKCLIFF RD @ OAKCLIFF INDUSTRIAL ST",
    "stationName": "Oakcliff Rd @ Oakcliff Industrial St",
    "destinations": {},
    "lat": 33.90224,
    "lon": -84.25276
  },
  "NEW PEACHTREE RD @ 6190": {
    "stationID": "NEW PEACHTREE RD @ 6190",
    "stationName": "New Peachtree Rd @ 6190",
    "destinations": {},
    "lat": 33.90562,
    "lon": -84.27594
  },
  "PLEASANTDALE RD @ 4111": {
    "stationID": "PLEASANTDALE RD @ 4111",
    "stationName": "Pleasantdale Rd @ 4111",
    "destinations": {},
    "lat": 33.90279,
    "lon": -84.24466
  },
  "PEACHTREE INDUSTRIAL BLVD@6670": {
    "stationID": "PEACHTREE INDUSTRIAL BLVD@6670",
    "stationName": "Peachtree Industrial Blvd@6670",
    "destinations": {},
    "lat": 33.92793,
    "lon": -84.27272
  },
  "PEACHTREE INDUSTRIAL BLVD@6750": {
    "stationID": "PEACHTREE INDUSTRIAL BLVD@6750",
    "stationName": "Peachtree Industrial Blvd@6750",
    "destinations": {},
    "lat": 33.9289,
    "lon": -84.27044
  },
  "ROSWELL RD NE @ MIDVALE DR NE": {
    "stationID": "ROSWELL RD NE @ MIDVALE DR NE",
    "stationName": "Roswell Rd Ne @ Midvale Dr Ne",
    "destinations": {},
    "lat": 33.87225,
    "lon": -84.38116
  },
  "ROSWELL RD NE @ WIEUCA RD NE": {
    "stationID": "ROSWELL RD NE @ WIEUCA RD NE",
    "stationName": "Roswell Rd Ne @ Wieuca Rd Ne",
    "destinations": {},
    "lat": 33.87625,
    "lon": -84.38035
  },
  "ROSWELL RD NE @ DILBECK PL NW": {
    "stationID": "ROSWELL RD NE @ DILBECK PL NW",
    "stationName": "Roswell Rd Ne @ Dilbeck Pl Nw",
    "destinations": {},
    "lat": 33.87729,
    "lon": -84.37976
  },
  "ROSWELL RD NE @ WINDSOR PKWY NE": {
    "stationID": "ROSWELL RD NE @ WINDSOR PKWY NE",
    "stationName": "Roswell Rd Ne @ Windsor Pkwy Ne",
    "destinations": {},
    "lat": 33.87931,
    "lon": -84.37991
  },
  "ROSWELL RD NE @ MYSTIC PL NE": {
    "stationID": "ROSWELL RD NE @ MYSTIC PL NE",
    "stationName": "Roswell Rd Ne @ Mystic Pl Ne",
    "destinations": {},
    "lat": 33.88314,
    "lon": -84.38013
  },
  "ROSWELL RD NE @ OSNER DR NE": {
    "stationID": "ROSWELL RD NE @ OSNER DR NE",
    "stationName": "Roswell Rd Ne @ Osner Dr Ne",
    "destinations": {},
    "lat": 33.89502,
    "lon": -84.38139
  },
  "ROSWELL RD NE @ MT PARAN RD NE": {
    "stationID": "ROSWELL RD NE @ MT PARAN RD NE",
    "stationName": "Roswell Rd Ne @ Mt Paran Rd Ne",
    "destinations": {},
    "lat": 33.89753,
    "lon": -84.38155
  },
  "ROSWELL RD NE @ MARYEANNA DR": {
    "stationID": "ROSWELL RD NE @ MARYEANNA DR",
    "stationName": "Roswell Rd Ne @ Maryeanna Dr",
    "destinations": {},
    "lat": 33.90008,
    "lon": -84.38052
  },
  "ROSWELL RD NE@MYSTIC DR": {
    "stationID": "ROSWELL RD NE@MYSTIC DR",
    "stationName": "Roswell Rd Ne@mystic Dr",
    "destinations": {},
    "lat": 33.88442,
    "lon": -84.38075
  },
  "ROSWELL RD NE @ LONG ISLAND DR NE": {
    "stationID": "ROSWELL RD NE @ LONG ISLAND DR NE",
    "stationName": "Roswell Rd Ne @ Long Island Dr Ne",
    "destinations": {},
    "lat": 33.88704,
    "lon": -84.38162
  },
  "ROSWELL RD NE @ W BELLE ISLE RD NE": {
    "stationID": "ROSWELL RD NE @ W BELLE ISLE RD NE",
    "stationName": "Roswell Rd Ne @ W Belle Isle Rd Ne",
    "destinations": {},
    "lat": 33.88992,
    "lon": -84.38153
  },
  "ROSWELL RD NE @ HARDEMAN RD": {
    "stationID": "ROSWELL RD NE @ HARDEMAN RD",
    "stationName": "Roswell Rd Ne @ Hardeman Rd",
    "destinations": {},
    "lat": 33.8924,
    "lon": -84.38119
  },
  "ROSWELL RD NE @ TOWNSHIP PKWY": {
    "stationID": "ROSWELL RD NE @ TOWNSHIP PKWY",
    "stationName": "Roswell Rd Ne @ Township Pkwy",
    "destinations": {},
    "lat": 33.88495,
    "lon": -84.38098
  },
  "ROSWELL RD NE @ E BELLE ISLE RD NE": {
    "stationID": "ROSWELL RD NE @ E BELLE ISLE RD NE",
    "stationName": "Roswell Rd Ne @ E Belle Isle Rd Ne",
    "destinations": {},
    "lat": 33.89019,
    "lon": -84.38128
  },
  "ROSWELL RD NE @ PARK AVE NE": {
    "stationID": "ROSWELL RD NE @ PARK AVE NE",
    "stationName": "Roswell Rd Ne @ Park Ave Ne",
    "destinations": {},
    "lat": 33.89287,
    "lon": -84.38112
  },
  "ROSWELL RD NE @ BEACHLAND DR NE": {
    "stationID": "ROSWELL RD NE @ BEACHLAND DR NE",
    "stationName": "Roswell Rd Ne @ Beachland Dr Ne",
    "destinations": {},
    "lat": 33.89771,
    "lon": -84.38142
  },
  "ROSWELL RD NE @ GREEN HILL RD NE": {
    "stationID": "ROSWELL RD NE @ GREEN HILL RD NE",
    "stationName": "Roswell Rd Ne @ Green Hill Rd Ne",
    "destinations": {},
    "lat": 33.90044,
    "lon": -84.38
  },
  "PEACHTREE RD NE @ HERMANCE DR NE": {
    "stationID": "PEACHTREE RD NE @ HERMANCE DR NE",
    "stationName": "Peachtree Rd Ne @ Hermance Dr Ne",
    "destinations": {},
    "lat": 33.87154,
    "lon": -84.33236
  },
  "PEACHTREE RD @ LANIER DR": {
    "stationID": "PEACHTREE RD @ LANIER DR",
    "stationName": "Peachtree Rd @ Lanier Dr",
    "destinations": {},
    "lat": 33.87362,
    "lon": -84.33044
  },
  "PEACHTREE RD@LANIER DR": {
    "stationID": "PEACHTREE RD@LANIER DR",
    "stationName": "Peachtree Rd@lanier Dr",
    "destinations": {},
    "lat": 33.87394,
    "lon": -84.33022
  },
  "PEACHTREE RD@HERMANCE DR": {
    "stationID": "PEACHTREE RD@HERMANCE DR",
    "stationName": "Peachtree Rd@hermance Dr",
    "destinations": {},
    "lat": 33.87163,
    "lon": -84.33248
  },
  "NEW PEACHTREE RD @ HOOD AVE": {
    "stationID": "NEW PEACHTREE RD @ HOOD AVE",
    "stationName": "New Peachtree Rd @ Hood Ave",
    "destinations": {},
    "lat": 33.8896,
    "lon": -84.30154
  },
  "JOHNSON FERRY RD @ JEFFERSON CIR S": {
    "stationID": "JOHNSON FERRY RD @ JEFFERSON CIR S",
    "stationName": "Johnson Ferry Rd @ Jefferson Cir S",
    "destinations": {},
    "lat": 33.88689,
    "lon": -84.31706
  },
  "CHAMBLEE TUCKER @ PEACHTREE RD": {
    "stationID": "CHAMBLEE TUCKER @ PEACHTREE RD",
    "stationName": "Chamblee Tucker @ Peachtree Rd",
    "destinations": {},
    "lat": 33.8884,
    "lon": -84.30938
  },
  "JOHNSON FERRY RD @ KESWICK DR": {
    "stationID": "JOHNSON FERRY RD @ KESWICK DR",
    "stationName": "Johnson Ferry Rd @ Keswick Dr",
    "destinations": {},
    "lat": 33.88841,
    "lon": -84.31852
  },
  "JOHNSON FERRY RD NE @ DURDEN DR NE": {
    "stationID": "JOHNSON FERRY RD NE @ DURDEN DR NE",
    "stationName": "Johnson Ferry Rd Ne @ Durden Dr Ne",
    "destinations": {},
    "lat": 33.89052,
    "lon": -84.32121
  },
  "PEACHTREE RD @ ASHFORD DUNWOODY RD": {
    "stationID": "PEACHTREE RD @ ASHFORD DUNWOODY RD",
    "stationName": "Peachtree Rd @ Ashford Dunwoody Rd",
    "destinations": {},
    "lat": 33.87533,
    "lon": -84.32786
  },
  "PEACHTREE RD NE @ REDDING RD NE": {
    "stationID": "PEACHTREE RD NE @ REDDING RD NE",
    "stationName": "Peachtree Rd Ne @ Redding Rd Ne",
    "destinations": {},