{
  "ABE": {
    "name": "Aberdeen",
    "code": "ABE",
    "tz": "America/New_York",
    "lat": 39.508447,
    "lon": -76.16326,
    "hasAddress": true,
    "address1": "18 East Bel Air Avenue",
    "address2": " ",
    "city": "Aberdeen",
    "state": "MD",
    "zip": "21001",
    "trains": [
      "85-21",
      "125-21",
      "138-21",
      "148-21",
      "193-21",
      "197-21"
    ]
  },
  "ABN": {
    "name": "Absecon",
    "code": "ABN",
    "tz": "America/New_York",
    "lat": 39.424041,
    "lon": -74.501475,
    "hasAddress": true,
    "address1": "Shore Road and Ohio Avenue",
    "address2": " ",
    "city": "Absecon",
    "state": "NJ",
    "zip": "08201",
    "trains": []
  },
  "ABQ": {
    "name": "Albuquerque",
    "code": "ABQ",
    "tz": "America/Denver",
    "lat": 35.082061,
    "lon": -106.647975,
    "hasAddress": true,
    "address1": "320 1st Street SW",
    "address2": " ",
    "city": "Albuquerque",
    "state": "NM",
    "zip": "87102",
    "trains": [
      "3-20",
      "3-21",
      "4-20",
      "4-21"
    ]
  },
  "ACA": {
    "name": "Antioch-Pittsburg",
    "code": "ACA",
    "tz": "America/Los_Angeles",
    "lat": 38.0177,
    "lon": -121.816024,
    "hasAddress": true,
    "address1": "100 I Street",
    "address2": " ",
    "city": "Antioch",
    "state": "CA",
    "zip": "94509",
    "trains": [
      "714-21",
      "715-21",
      "716-21",
      "717-21",
      "718-21",
      "719-21"
    ]
  },
  "ACD": {
    "name": "Arcadia Valley",
    "code": "ACD",
    "tz": "America/Chicago",
    "lat": 37.592161,
    "lon": -90.624403,
    "hasAddress": true,
    "address1": "13700 Highway 21",
    "address2": " ",
    "city": "Arcadia",
    "state": "MO",
    "zip": "63621",
    "trains": [
      "21-21",
      "22-21",
      "1021-20"
    ]
  },
  "ACY": {
    "name": "Atlantic City",
    "code": "ACY",
    "tz": "America/New_York",
    "lat": 39.362689,
    "lon": -74.439903,
    "hasAddress": true,
    "address1": "1 Atlantic City Expressway",
    "address2": " ",
    "city": "Atlantic City",
    "state": "NJ",
    "zip": "08401",
    "trains": []
  },
  "ADM": {
    "name": "Ardmore",
    "code": "ADM",
    "tz": "America/Chicago",
    "lat": 34.172465,
    "lon": -97.12551,
    "hasAddress": true,
    "address1": "251 East Main Street",
    "address2": " ",
    "city": "Ardmore",
    "state": "OK",
    "zip": "73401",
    "trains": [
      "822-21"
    ]
  },
  "AIR": {
    "code": "AIR",
    "lat": 37.364226,
    "lon": -120.578288,
    "hasAddress": true,
    "address1": "5050 Santa Fe Drive",
    "address2": " ",
    "city": "Atwater",
    "state": "CA",
    "zip": "95301",
    "trains": []
  },
  "AKY": {
    "name": "Ashland",
    "code": "AKY",
    "tz": "America/New_York",
    "lat": 38.480875,
    "lon": -82.639603,
    "hasAddress": true,
    "address1": "99 15th Street",
    "address2": " ",
    "city": "Ashland",
    "state": "KY",
    "zip": "41101",
    "trains": [
      "50-20",
      "51-21"
    ]
  },
  "ALB": {
    "name": "Albany-Rensselaer",
    "code": "ALB",
    "tz": "America/New_York",
    "lat": 42.641029,
    "lon": -73.741147,
    "hasAddress": true,
    "address1": "525 East Street",
    "address2": " ",
    "city": "Rensselaer",
    "state": "NY",
    "zip": "12144",
    "trains": [
      "49-21",
      "64-21",
      "68-21",
      "239-21",
      "241-21",
      "283-21",
      "291-21"
    ]
  },
  "ALC": {
    "name": "Alliance",
    "code": "ALC",
    "tz": "America/New_York",
    "lat": 40.921275,
    "lon": -81.092904,
    "hasAddress": true,
    "address1": "820 East Main Street",
    "address2": " ",
    "city": "Alliance",
    "state": "OH",
    "zip": "44601",
    "trains": [
      "40-20",
      "40-21",
      "41-19",
      "41-20",
      "41-21"
    ]
  },
  "ALD": {
    "name": "Alderson",
    "code": "ALD",
    "tz": "America/New_York",
    "lat": 37.724277,
    "lon": -80.644856,
    "hasAddress": true,
    "address1": "1 C&O Plaza on Railroad Avenue",
    "address2": " ",
    "city": "Alderson",
    "state": "WV",
    "zip": "24910",
    "trains": [
      "50-20",
      "51-21"
    ]
  },
  "ALI": {
    "name": "Albion",
    "code": "ALI",
    "tz": "America/Detroit",
    "lat": 42.247196,
    "lon": -84.755814,
    "hasAddress": true,
    "address1": "300 North Eaton Street",
    "address2": " ",
    "city": "Albion",
    "state": "MI",
    "zip": "49224",
    "trains": [
      "354-21"
    ]
  },
  "ALN": {
    "name": "Alton",
    "code": "ALN",
    "tz": "America/Chicago",
    "lat": 38.921007,
    "lon": -90.157298,
    "hasAddress": true,
    "address1": "1 Golf Road",
    "address2": " ",
    "city": "Alton",
    "state": "IL",
    "zip": "62002",
    "trains": [
      "21-21",
      "22-21",
      "305-21",
      "306-21",
      "307-21",
      "318-21",
      "319-21",
      "1021-20"
    ]
  },
  "ALP": {
    "name": "Alpine",
    "code": "ALP",
    "tz": "America/Chicago",
    "lat": 30.357302,
    "lon": -103.661513,
    "hasAddress": true,
    "address1": "102 West Holland Avenue",
    "address2": " ",
    "city": "Alpine",
    "state": "TX",
    "zip": "79830",
    "trains": [
      "2-19"
    ]
  },
  "ALT": {
    "name": "Altoona",
    "code": "ALT",
    "tz": "America/New_York",
    "lat": 40.514475,
    "lon": -78.40162,
    "hasAddress": true,
    "address1": "1231 11th Avenue",
    "address2": " ",
    "city": "Altoona",
    "state": "PA",
    "zip": "16601",
    "trains": []
  },
  "ALX": {
    "name": "Alexandria",
    "code": "ALX",
    "tz": "America/New_York",
    "lat": 38.806503,
    "lon": -77.06233,
    "hasAddress": true,
    "address1": "110 Callahan Drive",
    "address2": " ",
    "city": "Alexandria",
    "state": "VA",
    "zip": "22301",
    "trains": [
      "19-20",
      "19-21",
      "20-21",
      "40-20",
      "40-21",
      "41-19",
      "41-20",
      "41-21",
      "50-20",
      "51-21",
      "65-21",
      "66-21",
      "79-21",
      "80-21",
      "85-21",
      "89-21",
      "90-21",
      "93-21",
      "94-21",
      "97-20",
      "97-21",
      "98-21",
      "125-21",
      "138-21",
      "171-21",
      "186-21"
    ]
  },
  "ALY": {
    "name": "Albany",
    "code": "ALY",
    "tz": "America/Los_Angeles",
    "lat": 44.630464,
    "lon": -123.102774,
    "hasAddress": true,
    "address1": "110 10th Avenue SW",
    "address2": " ",
    "city": "Albany",
    "state": "OR",
    "zip": "97321",
    "trains": [
      "11-20",
      "11-21",
      "14-20",
      "14-21",
      "507-21",
      "508-21"
    ]
  },
  "AMS": {
    "name": "Amsterdam",
    "code": "AMS",
    "tz": "America/New_York",
    "lat": 42.953719,
    "lon": -74.2195,
    "hasAddress": true,
    "address1": "466 West Main Street",
    "address2": " ",
    "city": "Amsterdam",
    "state": "NY",
    "zip": "12010",
    "trains": [
      "64-21",
      "283-21"
    ]
  },
  "ANA": {
    "name": "Anaheim",
    "code": "ANA",
    "tz": "America/Los_Angeles",
    "lat": 33.803803,
    "lon": -117.877308,
    "hasAddress": true,
    "address1": "2626 East Katella Avenue",
    "address2": " ",
    "city": "Anaheim",
    "state": "CA",
    "zip": "92806",
    "trains": [
      "580-21",
      "582-21",
      "587-21",
      "779-21",
      "784-21",
      "785-21",
      "790-21",
      "794-21"
    ]
  },
  "ARB": {
    "name": "Ann Arbor",
    "code": "ARB",
    "tz": "America/Detroit",
    "lat": 42.287692,
    "lon": -83.743154,
    "hasAddress": true,
    "address1": "325 Depot Street",
    "address2": " ",
    "city": "Ann Arbor",
    "state": "MI",
    "zip": "48104",
    "trains": [
      "352-21",
      "354-21",
      "355-21"
    ]
  },
  "ARD": {
    "name": "Ardmore",
    "code": "ARD",
    "tz": "America/New_York",
    "lat": 40.008278,
    "lon": -75.290399,
    "hasAddress": true,
    "address1": "39 Station Avenue",
    "address2": " ",
    "city": "Ardmore",
    "state": "PA",
    "zip": "19003",
    "trains": [
      "653-21",
      "655-21",
      "656-21",
      "657-21",
      "658-21"
    ]
  },
  "ARK": {
    "name": "Arkadelphia",
    "code": "ARK",
    "tz": "America/Chicago",
    "lat": 34.113919,
    "lon": -93.053284,
    "hasAddress": true,
    "address1": "798 South 5th Street",
    "address2": " ",
    "city": "Arkadelphia",
    "state": "AR",
    "zip": "71923",
    "trains": [
      "21-21",
      "22-21",
      "1021-20"
    ]
  },
  "ARN": {
    "name": "Auburn",
    "code": "ARN",
    "tz": "America/Los_Angeles",
    "lat": 38.903638,
    "lon": -121.083187,
    "hasAddress": true,
    "address1": "277 Nevada Street",
    "address2": " ",
    "city": "Auburn",
    "state": "CA",
    "zip": "95603",
    "trains": [
      "538-21"
    ]
  },
  "ASD": {
    "name": "Ashland",
    "code": "ASD",
    "tz": "America/New_York",
    "lat": 37.759596,
    "lon": -77.481304,
    "hasAddress": true,
    "address1": "112 North Railroad Avenue",
    "address2": " ",
    "city": "Ashland",
    "state": "VA",
    "zip": "23005",
    "trains": [
      "65-21",
      "85-21",
      "93-21",
      "94-21",
      "125-21",
      "138-21",
      "186-21"
    ]
  },
  "ALDR": {
    "name": "Aldershot",
    "code": "ALDR",
    "tz": "America/Toronto",
    "lat": 43.313413,
    "lon": -79.855712,
    "hasAddress": true,
    "address1": "1199 Waterdown Road",
    "address2": " ",
    "city": "Aldershot",
    "state": "ON",
    "zip": "L7T 4A8",
    "trains": [
      "v70-21",
      "v71-21",
      "v72-21",
      "v73-21",
      "v75-21",
      "v76-21",
      "v78-21",
      "v79-21",
      "v83-21",
      "v97-21",
      "v98-21"
    ]
  },
  "ATL": {
    "name": "Atlanta Peachtree",
    "code": "ATL",
    "tz": "America/New_York",
    "lat": 33.799445,
    "lon": -84.392477,
    "hasAddress": true,
    "address1": "1688 Peachtree Street, NW",
    "address2": " ",
    "city": "Atlanta",
    "state": "GA",
    "zip": "30309",
    "trains": [
      "19-20",
      "19-21",
      "20-21"
    ]
  },
  "ATN": {
    "name": "Anniston",
    "code": "ATN",
    "tz": "America/Chicago",
    "lat": 33.649112,
    "lon": -85.832145,
    "hasAddress": true,
    "address1": "126 West 4th Street",
    "address2": " ",
    "city": "Anniston",
    "state": "AL",
    "zip": "36201",
    "trains": [
      "19-20",
      "19-21",
      "20-21"
    ]
  },
  "ATO": {
    "name": "Atco",
    "code": "ATO",
    "tz": "America/New_York",
    "lat": 39.783504,
    "lon": -74.907893,
    "hasAddress": true,
    "address1": "Cooper Road and Raritan Avenue",
    "address2": " ",
    "city": "Atco",
    "state": "NJ",
    "zip": "08004",
    "trains": []
  },
  "AUS": {
    "name": "Austin",
    "code": "AUS",
    "tz": "America/Chicago",
    "lat": 30.269449,
    "lon": -97.75694,
    "hasAddress": true,
    "address1": "250 North Lamar Boulevard",
    "address2": " ",
    "city": "Austin",
    "state": "TX",
    "zip": "78703",
    "trains": [
      "21-21",
      "22-21",
      "1021-20"
    ]
  },
  "BAL": {
    "name": "Baltimore Penn",
    "code": "BAL",
    "tz": "America/New_York",
    "lat": 39.307302,
    "lon": -76.615688,
    "hasAddress": true,
    "address1": "1500 North Charles Street",
    "address2": " ",
    "city": "Baltimore",
    "state": "MD",
    "zip": "21201",
    "trains": [
      "19-20",
      "19-21",
      "20-21",
      "50-20",
      "51-21",
      "55-21",
      "56-21",
      "65-21",
      "66-21",
      "79-21",
      "80-21",
      "85-21",
      "89-21",
      "90-21",
      "93-21",
      "94-21",
      "97-20",
      "97-21",
      "98-21",
      "125-21",
      "136-21",
      "137-21",
      "138-21",
      "148-21",
      "171-21",
      "175-21",
      "176-21",
      "178-21",
      "184-21",
      "186-21",
      "192-21",
      "193-21",
      "196-21",
      "197-21",
      "2166-21",
      "2167-21",
      "2168-21",
      "2169-21",
      "2170-21",
      "2172-21",
      "2173-21",
      "2174-21"
    ]
  },
  "BAM": {
    "name": "Bangor",
    "code": "BAM",
    "tz": "America/Detroit",
    "lat": 42.314519,
    "lon": -86.111646,
    "hasAddress": true,
    "address1": "541 Railroad Street",
    "address2": " ",
    "city": "Bangor",
    "state": "MI",
    "zip": "49013",
    "trains": [
      "370-21"
    ]
  },
  "BAR": {
    "name": "Barstow",
    "code": "BAR",
    "tz": "America/Los_Angeles",
    "lat": 34.90482,
    "lon": -117.025435,
    "hasAddress": true,
    "address1": "685 North First Avenue",
    "address2": " ",
    "city": "Barstow",
    "state": "CA",
    "zip": "92311",
    "trains": [
      "3-20",
      "3-21",
      "4-20",
      "4-21"
    ]
  },
  "BAS": {
    "name": "Bay St. Louis",
    "code": "BAS",
    "lat": 30.308734,
    "lon": -89.334,
    "hasAddress": true,
    "address1": "1928 Depot Way",
    "address2": " ",
    "city": "Bay St. Louis",
    "state": "MS",
    "zip": "39520",
    "trains": [
      "25-21",
      "26-21"
    ]
  },
  "BBK": {
    "name": "Burbank",
    "code": "BBK",
    "tz": "America/Los_Angeles",
    "lat": 34.171299,
    "lon": -118.2999,
    "hasAddress": true,
    "address1": "201 North Front Street",
    "address2": " ",
    "city": "Burbank",
    "state": "CA",
    "zip": "91502",
    "trains": [
      "779-21",
      "784-21"
    ]
  },
  "BBY": {
    "name": "Boston Back Bay",
    "code": "BBY",
    "tz": "America/New_York",
    "lat": 42.347317,
    "lon": -71.075828,
    "hasAddress": true,
    "address1": "145 Dartmouth Street",
    "address2": " ",
    "city": "Boston",
    "state": "MA",
    "zip": "02116",
    "trains": [
      "65-21",
      "66-21",
      "85-21",
      "93-21",
      "94-21",
      "137-21",
      "171-21",
      "175-21",
      "176-21",
      "177-21",
      "178-21",
      "179-21",
      "184-21",
      "2166-21",
      "2167-21",
      "2168-21",
      "2169-21",
      "2170-21",
      "2172-21",
      "2173-21",
      "2174-21",
      "2193-21"
    ]
  },
  "BCV": {
    "name": "Burke Centre",
    "code": "BCV",
    "tz": "America/New_York",
    "lat": 38.797271,
    "lon": -77.29879,
    "hasAddress": true,
    "address1": "10399 Premier Court",
    "address2": " ",
    "city": "Burke",
    "state": "VA",
    "zip": "22015",
    "trains": [
      "171-21"
    ]
  },
  "BEL": {
    "name": "Bellingham Fairhaven",
    "code": "BEL",
    "tz": "America/Los_Angeles",
    "lat": 48.720263,
    "lon": -122.511255,
    "hasAddress": true,
    "address1": "401 Harris Avenue",
    "address2": " ",
    "city": "Bellingham",
    "state": "WA",
    "zip": "98225",
    "trains": [
      "518-21",
      "519-21"
    ]
  },
  "BEN": {
    "name": "Benson",
    "code": "BEN",
    "tz": "America/Phoenix",
    "lat": 31.968758,
    "lon": -110.296904,
    "hasAddress": true,
    "address1": "105 East 4th Street",
    "address2": " ",
    "city": "Benson",
    "state": "AZ",
    "zip": "85602",
    "trains": [
      "2-19"
    ]
  },
  "BER": {
    "name": "Berlin",
    "code": "BER",
    "tz": "America/New_York",
    "lat": 41.635595,
    "lon": -72.765274,
    "hasAddress": true,
    "address1": "51 Depot Road",
    "address2": " ",
    "city": "Berlin",
    "state": "CT",
    "zip": "06037",
    "trains": [
      "125-21",
      "136-21",
      "148-21",
      "479-21",
      "494-21"
    ]
  },
  "BFD": {
    "name": "Bakersfield",
    "code": "BFD",
    "tz": "America/Los_Angeles",
    "lat": 35.37214,
    "lon": -119.00821,
    "hasAddress": true,
    "address1": "601 Truxtun Avenue",
    "address2": " ",
    "city": "Bakersfield",
    "state": "CA",
    "zip": "93301",
    "trains": [
      "714-21",
      "715-21",
      "716-21",
      "717-21",
      "718-21",
      "719-21"
    ]
  },
  "BFX": {
    "name": "Buffalo-Exchange Street",
    "code": "BFX",
    "tz": "America/New_York",
    "lat": 42.878449,
    "lon": -78.873748,
    "hasAddress": true,
    "address1": "75 Exchange Street",
    "address2": " ",
    "city": "Buffalo",
    "state": "NY",
    "zip": "14203",
    "trains": [
      "64-21",
      "283-21"
    ]
  },
  "BHM": {
    "name": "Birmingham",
    "code": "BHM",
    "tz": "America/Chicago",
    "lat": 33.512937,
    "lon": -86.807023,
    "hasAddress": true,
    "address1": "1801 Morris Avenue",
    "address2": " ",
    "city": "Birmingham",
    "state": "AL",
    "zip": "35203",
    "trains": [
      "19-20",
      "19-21",
      "20-21"
    ]
  },
  "BIX": {
    "name": "Biloxi",
    "code": "BIX",
    "lat": 30.39899,
    "lon": -88.891134,
    "hasAddress": true,
    "address1": "890 Esters Blvd.",
    "address2": " ",
    "city": "Biloxi",
    "state": "MS",
    "zip": "39530",
    "trains": [
      "25-21",
      "26-21"
    ]
  },
  "BKY": {
    "name": "Berkeley",
    "code": "BKY",
    "tz": "America/Los_Angeles",
    "lat": 37.867254,
    "lon": -122.300707,
    "hasAddress": true,
    "address1": "700 University Avenue",
    "address2": " ",
    "city": "Berkeley",
    "state": "CA",
    "zip": "94710",
    "trains": [
      "538-21",
      "540-21",
      "542-21",
      "543-21",
      "544-21",
      "545-21",
      "547-21",
      "549-21"
    ]
  },
  "BLF": {
    "name": "Bellows Falls",
    "code": "BLF",
    "tz": "America/New_York",
    "lat": 43.13654,
    "lon": -72.444597,
    "hasAddress": true,
    "address1": "54 Depot Street",
    "address2": " ",
    "city": "Bellows Falls",
    "state": "VT",
    "zip": "05101",
    "trains": [
      "55-21",
      "56-21"
    ]
  },
  "BMT": {
    "name": "Beaumont",
    "code": "BMT",
    "tz": "America/Chicago",
    "lat": 30.076458,
    "lon": -94.127367,
    "hasAddress": true,
    "address1": "2555 West Cedar Street",
    "address2": " ",
    "city": "Beaumont",
    "state": "TX",
    "zip": "77704",
    "trains": [
      "2-19"
    ]
  },
  "BNC": {
    "name": "Burlington",
    "code": "BNC",
    "tz": "America/New_York",
    "lat": 36.094225,
    "lon": -79.434531,
    "hasAddress": true,
    "address1": "101 North Main Street",
    "address2": " ",
    "city": "Burlington",
    "state": "NC",
    "zip": "27217",
    "trains": [
      "78-21",
      "79-21",
      "80-21"
    ]
  },
  "BNF": {
    "name": "Branford",
    "code": "BNF",
    "tz": "America/New_York",
    "lat": 41.274677,
    "lon": -72.81635,
    "hasAddress": true,
    "address1": "39 Maple Street",
    "address2": " ",
    "city": "Branford",
    "state": "CT",
    "zip": "06405",
    "trains": []
  },
  "BNG": {
    "name": "Bingen-White Salmon",
    "code": "BNG",
    "tz": "America/Los_Angeles",
    "lat": 45.71502,
    "lon": -121.46873,
    "hasAddress": true,
    "address1": "Highway 14 and Walnut Street",
    "address2": " ",
    "city": "Bingen",
    "state": "WA",
    "zip": "98605",
    "trains": [
      "28-21"
    ]
  },
  "BNL": {
    "name": "Bloomington-Normal",
    "code": "BNL",
    "tz": "America/Chicago",
    "lat": 40.50901,
    "lon": -88.984306,
    "hasAddress": true,
    "address1": "11 Uptown Circle",
    "address2": " ",
    "city": "Normal",
    "state": "IL",
    "zip": "61761",
    "trains": [
      "21-21",
      "22-21",
      "305-21",
      "306-21",
      "307-21",
      "318-21",
      "319-21",
      "1021-20"
    ]
  },
  "BON": {
    "name": "Boston North",
    "code": "BON",
    "tz": "America/New_York",
    "lat": 42.366235,
    "lon": -71.061122,
    "hasAddress": true,
    "address1": "135 Causeway Street",
    "address2": " ",
    "city": "Boston",
    "state": "MA",
    "zip": "02114",
    "trains": [
      "687-21",
      "688-21"
    ]
  },
  "BOS": {
    "name": "Boston South",
    "code": "BOS",
    "tz": "America/New_York",
    "lat": 42.352311,
    "lon": -71.055304,
    "hasAddress": true,
    "address1": "2 South Station",
    "address2": " ",
    "city": "Boston",
    "state": "MA",
    "zip": "02110",
    "trains": [
      "65-21",
      "66-21",
      "85-21",
      "93-21",
      "94-21",
      "137-21",
      "171-21",
      "175-21",
      "176-21",
      "177-21",
      "178-21",
      "179-21",
      "184-21",
      "2166-21",
      "2167-21",
      "2168-21",
      "2169-21",
      "2170-21",
      "2172-21",
      "2173-21",
      "2174-21",
      "2193-21"
    ]
  },
  "BRA": {
    "name": "Brattleboro",
    "code": "BRA",
    "tz": "America/New_York",
    "lat": 42.850849,
    "lon": -72.556497,
    "hasAddress": true,
    "address1": "10 Vernon Road",
    "address2": " ",
    "city": "Brattleboro",
    "state": "VT",
    "zip": "05301",
    "trains": [
      "55-21",
      "56-21"
    ]
  },
  "BRH": {
    "name": "Brookhaven",
    "code": "BRH",
    "tz": "America/Chicago",
    "lat": 31.582961,
    "lon": -90.44107,
    "hasAddress": true,
    "address1": "440 North Railroad Avenue",
    "address2": " ",
    "city": "Brookhaven",
    "state": "MS",
    "zip": "39601",
    "trains": [
      "58-21"
    ]
  },
  "BRK": {
    "name": "Brunswick",
    "code": "BRK",
    "tz": "America/New_York",
    "lat": 43.911388,
    "lon": -69.965541,
    "hasAddress": true,
    "address1": "16 Station Avenue",
    "address2": " ",
    "city": "Brunswick",
    "state": "ME",
    "zip": "04011",
    "trains": [
      "687-21",
      "688-21"
    ]
  },
  "BRL": {
    "name": "Burlington",
    "code": "BRL",
    "tz": "America/Chicago",
    "lat": 40.805788,
    "lon": -91.101951,
    "hasAddress": true,
    "address1": "300 South Main Street",
    "address2": " ",
    "city": "Burlington",
    "state": "IA",
    "zip": "52601",
    "trains": [
      "5-21",
      "5-20",
      "6-20",
      "6-21"
    ]
  },
  "BRO": {
    "name": "Browning",
    "code": "BRO",
    "tz": "America/Denver",
    "lat": 48.534067,
    "lon": -113.013151,
    "hasAddress": true,
    "address1": "Heart Butte Road and Depot Road",
    "address2": " ",
    "city": "Browning",
    "state": "MT",
    "zip": "59417",
    "trains": [
      "7-20",
      "7-21",
      "8-20",
      "8-21"
    ]
  },
  "BRP": {
    "name": "Bridgeport",
    "code": "BRP",
    "tz": "America/New_York",
    "lat": 41.178006,
    "lon": -73.187539,
    "hasAddress": true,
    "address1": "525 Water Street",
    "address2": " ",
    "city": "Bridgeport",
    "state": "CT",
    "zip": "06604",
    "trains": [
      "55-21",
      "56-21",
      "65-21",
      "66-21",
      "85-21",
      "93-21",
      "94-21",
      "125-21",
      "136-21",
      "137-21",
      "148-21",
      "171-21",
      "176-21",
      "177-21",
      "178-21",
      "179-21",
      "184-21"
    ]
  },
  "BTL": {
    "name": "Battle Creek",
    "code": "BTL",
    "tz": "America/Detroit",
    "lat": 42.318453,
    "lon": -85.187825,
    "hasAddress": true,
    "address1": "119 McCamly Street South",
    "address2": " ",
    "city": "Battle Creek",
    "state": "MI",
    "zip": "49017",
    "trains": [
      "352-21",
      "354-21",
      "355-21",
      "364-21"
    ]
  },
  "BTN": {
    "name": "Burlington",
    "code": "BTN",
    "tz": "America/New_York",
    "lat": 44.4757,
    "lon": -73.21927,
    "hasAddress": true,
    "address1": "1 Main Street",
    "address2": " ",
    "city": "Burlington",
    "state": "VT",
    "zip": "05401",
    "trains": [
      "291-21"
    ]
  },
  "BUF": {
    "name": "Buffalo-Depew",
    "code": "BUF",
    "tz": "America/New_York",
    "lat": 42.907017,
    "lon": -78.726584,
    "hasAddress": true,
    "address1": "55 Dick Road",
    "address2": " ",
    "city": "Depew",
    "state": "NY",
    "zip": "14043",
    "trains": [
      "49-21",
      "64-21",
      "283-21"
    ]
  },
  "BUR": {
    "name": "Burbank Airport",
    "code": "BUR",
    "tz": "America/Los_Angeles",
    "lat": 34.193072,
    "lon": -118.353767,
    "hasAddress": true,
    "address1": "3750 Empire Avenue",
    "address2": " ",
    "city": "Burbank",
    "state": "CA",
    "zip": "91505",
    "trains": [
      "11-20",
      "11-21",
      "779-21",
      "784-21",
      "785-21",
      "790-21",
      "794-21"
    ]
  },
  "BWI": {
    "name": "Baltimore Airport",
    "code": "BWI",
    "tz": "America/New_York",
    "lat": 39.192362,
    "lon": -76.6943,
    "hasAddress": true,
    "address1": "7 Amtrak Way",
    "address2": " ",
    "city": "Baltimore",
    "state": "MD",
    "zip": "21240",
    "trains": [
      "20-21",
      "55-21",
      "56-21",
      "65-21",
      "66-21",
      "85-21",
      "89-21",
      "90-21",
      "93-21",
      "94-21",
      "125-21",
      "136-21",
      "137-21",
      "138-21",
      "148-21",
      "171-21",
      "175-21",
      "176-21",
      "178-21",
      "184-21",
      "186-21",
      "192-21",
      "193-21",
      "196-21",
      "197-21",
      "2167-21",
      "2169-21",
      "2170-21"
    ]
  },
  "BYN": {
    "name": "Bryan",
    "code": "BYN",
    "tz": "America/New_York",
    "lat": 41.480319,
    "lon": -84.551799,
    "hasAddress": true,
    "address1": "Paige and Lynn Street",
    "address2": " ",
    "city": "Bryan",
    "state": "OH",
    "zip": "43506",
    "trains": [
      "49-21"
    ]
  },
  "CAM": {
    "name": "Camden",
    "code": "CAM",
    "tz": "America/New_York",
    "lat": 34.248157,
    "lon": -80.62519,
    "hasAddress": true,
    "address1": "1060 West Dekalb Street",
    "address2": " ",
    "city": "Camden",
    "state": "SC",
    "zip": "29020",
    "trains": [
      "40-20",
      "40-21",
      "41-19",
      "41-20",
      "41-21"
    ]
  },
  "CBR": {
    "name": "Cleburne",
    "code": "CBR",
    "tz": "America/Chicago",
    "lat": 32.349743,
    "lon": -97.382333,
    "hasAddress": true,
    "address1": "206 North Border Street",
    "address2": " ",
    "city": "Cleburne",
    "state": "TX",
    "zip": "76031",
    "trains": [
      "21-21",
      "22-21",
      "1021-20"
    ]
  },
  "CBS": {
    "name": "Columbus",
    "code": "CBS",
    "tz": "America/Chicago",
    "lat": 43.340611,
    "lon": -89.012609,
    "hasAddress": true,
    "address1": "359 North Ludington Street",
    "address2": " ",
    "city": "Columbus",
    "state": "WI",
    "zip": "53925",
    "trains": [
      "7-20",
      "7-21",
      "8-20",
      "8-21"
    ]
  },
  "CDL": {
    "name": "Carbondale",
    "code": "CDL",
    "tz": "America/Chicago",
    "lat": 37.724581,
    "lon": -89.216325,
    "hasAddress": true,
    "address1": "401 South Illinois Avenue",
    "address2": " ",
    "city": "Carbondale",
    "state": "IL",
    "zip": "62901",
    "trains": [
      "58-21",
      "392-21",
      "393-21"
    ]
  },
  "CEN": {
    "name": "Centralia",
    "code": "CEN",
    "tz": "America/Chicago",
    "lat": 38.527531,
    "lon": -89.136118,
    "hasAddress": true,
    "address1": "110 South Oak St.",
    "address2": " ",
    "city": "Centralia",
    "state": "IL",
    "zip": "62801",
    "trains": [
      "58-21",
      "392-21",
      "393-21"
    ]
  },
  "CHI": {
    "name": "Chicago Union",
    "code": "CHI",
    "tz": "America/Chicago",
    "lat": 41.878992,
    "lon": -87.641015,
    "hasAddress": true,
    "address1": "255 South Clinton Street",
    "address2": " ",
    "city": "Chicago",
    "state": "IL",
    "zip": "60606",
    "trains": [
      "3-20",
      "3-21",
      "4-20",
      "4-21",
      "5-21",
      "5-20",
      "6-20",
      "6-21",
      "7-20",
      "7-21",
      "8-20",
      "8-21",
      "21-21",
      "22-21",
      "40-20",
      "40-21",
      "41-19",
      "41-20",
      "41-21",
      "49-21",
      "50-20",
      "51-21",
      "58-21",
      "305-21",
      "306-21",
      "307-21",
      "318-21",
      "319-21",
      "342-21",
      "352-21",
      "354-21",
      "355-21",
      "364-21",
      "370-21",
      "382-21",
      "383-21",
      "392-21",
      "393-21",
      "1021-20"
    ]
  },
  "CHM": {
    "name": "Champaign-Urbana",
    "code": "CHM",
    "tz": "America/Chicago",
    "lat": 40.115843,
    "lon": -88.241366,
    "hasAddress": true,
    "address1": "45 East University Avenue",
    "address2": " ",
    "city": "Champaign",
    "state": "IL",
    "zip": "61820",
    "trains": [
      "58-21",
      "392-21",
      "393-21"
    ]
  },
  "CHS": {
    "name": "Charleston",
    "code": "CHS",
    "tz": "America/New_York",
    "lat": 32.875473,
    "lon": -79.998048,
    "hasAddress": true,
    "address1": "4565 Gaynor Avenue",
    "address2": "North Charleston Transit Center",
    "city": "North Charleston",
    "state": "SC",
    "zip": "29405",
    "trains": [
      "89-21",
      "90-21",
      "97-20",
      "97-21",
      "98-21"
    ]
  },
  "CHW": {
    "name": "Charleston",
    "code": "CHW",
    "tz": "America/New_York",
    "lat": 38.346368,
    "lon": -81.638494,
    "hasAddress": true,
    "address1": "350 MacCorkle Avenue - Southeast",
    "address2": " ",
    "city": "Charleston",
    "state": "WV",
    "zip": "25314",
    "trains": [
      "50-20",
      "51-21"
    ]
  },
  "CIC": {
    "name": "Chico",
    "code": "CIC",
    "tz": "America/Los_Angeles",
    "lat": 39.723259,
    "lon": -121.845861,
    "hasAddress": true,
    "address1": "450 Orange Street",
    "address2": " ",
    "city": "Chico",
    "state": "CA",
    "zip": "95928",
    "trains": [
      "11-20",
      "11-21",
      "14-20",
      "14-21"
    ]
  },
  "CIN": {
    "name": "Cincinnati",
    "code": "CIN",
    "tz": "America/New_York",
    "lat": 39.109927,
    "lon": -84.537061,
    "hasAddress": true,
    "address1": "1301 Western Avenue",
    "address2": " ",
    "city": "Cincinnati",
    "state": "OH",
    "zip": "45203",
    "trains": [
      "50-20",
      "51-21"
    ]
  },
  "CLA": {
    "name": "Claremont",
    "code": "CLA",
    "tz": "America/New_York",
    "lat": 43.36833,
    "lon": -72.377644,
    "hasAddress": true,
    "address1": "Plains Road and Maple Avenue",
    "address2": " ",
    "city": "Claremont",
    "state": "NH",
    "zip": "03743",
    "trains": [
      "55-21",
      "56-21"
    ]
  },
  "CLB": {
    "name": "Columbia",
    "code": "CLB",
    "tz": "America/New_York",
    "lat": 33.994297,
    "lon": -81.04049,
    "hasAddress": true,
    "address1": "850 Pulaski Street",
    "address2": " ",
    "city": "Columbia",
    "state": "SC",
    "zip": "29201",
    "trains": [
      "40-20",
      "40-21",
      "41-19",
      "41-20",
      "41-21"
    ]
  },
  "CLE": {
    "name": "Cleveland",
    "code": "CLE",
    "tz": "America/New_York",
    "lat": 41.505787,
    "lon": -81.696172,
    "hasAddress": true,
    "address1": "200 Cleveland Memorial Shoreway",
    "address2": " ",
    "city": "Cleveland",
    "state": "OH",
    "zip": "44114",
    "trains": [
      "40-20",
      "40-21",
      "41-19",
      "41-20",
      "41-21",
      "49-21"
    ]
  },
  "CLF": {
    "name": "Clifton Forge",
    "code": "CLF",
    "tz": "America/New_York",
    "lat": 37.814521,
    "lon": -79.827363,
    "hasAddress": true,
    "address1": "307 East Ridgeway Street",
    "address2": " ",
    "city": "Clifton Forge",
    "state": "VA",
    "zip": "24422",
    "trains": [
      "50-20",
      "51-21"
    ]
  },
  "CLN": {
    "name": "Clinton",
    "code": "CLN",
    "tz": "America/New_York",
    "lat": 41.280743,
    "lon": -72.52929,
    "hasAddress": true,
    "address1": "10 John Street Extension",
    "address2": " ",
    "city": "Clinton",
    "state": "CT",
    "zip": "06413",
    "trains": []
  },
  "CLP": {
    "name": "Culpeper",
    "code": "CLP",
    "tz": "America/New_York",
    "lat": 38.47236,
    "lon": -77.993421,
    "hasAddress": true,
    "address1": "111 South Commerce Street",
    "address2": " ",
    "city": "Culpeper",
    "state": "VA",
    "zip": "22701",
    "trains": [
      "19-20",
      "19-21",
      "20-21",
      "50-20",
      "51-21",
      "66-21",
      "171-21"
    ]
  },
  "CLT": {
    "name": "Charlotte",
    "code": "CLT",
    "tz": "America/New_York",
    "lat": 35.241403,
    "lon": -80.822812,
    "hasAddress": true,
    "address1": "1914 North Tryon Street",
    "address2": " ",
    "city": "Charlotte",
    "state": "NC",
    "zip": "28206",
    "trains": [
      "19-20",
      "19-21",
      "20-21",
      "76-21",
      "78-21",
      "79-21",
      "80-21"
    ]
  },
  "CML": {
    "name": "Camarillo",
    "code": "CML",
    "tz": "America/Los_Angeles",
    "lat": 34.215933,
    "lon": -119.034114,
    "hasAddress": true,
    "address1": "30 Lewis Road",
    "address2": " ",
    "city": "Camarillo",
    "state": "CA",
    "zip": "93010",
    "trains": [
      "779-21",
      "784-21",
      "785-21",
      "790-21",
      "794-21"
    ]
  },
  "CMO": {
    "name": "Chemult",
    "code": "CMO",
    "tz": "America/Los_Angeles",
    "lat": 43.216784,
    "lon": -121.781594,
    "hasAddress": true,
    "address1": "Palmer/Kranz Street and Depot Street",
    "address2": " ",
    "city": "Chemult",
    "state": "OR",
    "zip": "97731",
    "trains": [
      "11-20",
      "11-21",
      "14-20",
      "14-21"
    ]
  },
  "CNL": {
    "name": "Allensworth State Park",
    "code": "CNL",
    "tz": "America/Los_Angeles",
    "lat": 35.864338,
    "lon": -119.385865,
    "hasAddress": true,
    "address1": "4011 Grant Drive",
    "address2": " ",
    "city": "Allensworth",
    "state": "CA",
    "zip": "93219",
    "trains": []
  },
  "CNV": {
    "name": "Castleton",
    "code": "CNV",
    "tz": "America/New_York",
    "lat": 43.613382,
    "lon": -73.171337,
    "hasAddress": true,
    "address1": "266 Main Street",
    "address2": " ",
    "city": "Castleton",
    "state": "VT",
    "zip": "05735",
    "trains": [
      "291-21"
    ]
  },
  "COC": {
    "name": "Corcoran",
    "code": "COC",
    "tz": "America/Los_Angeles",
    "lat": 36.098516,
    "lon": -119.55705,
    "hasAddress": true,
    "address1": "1099 Otis Avenue",
    "address2": " ",
    "city": "Corcoran",
    "state": "CA",
    "zip": "93212",
    "trains": [
      "714-21",
      "715-21",
      "716-21",
      "717-21",
      "718-21",
      "719-21"
    ]
  },
  "COI": {
    "name": "Connersville",
    "code": "COI",
    "tz": "America/Indiana/Indianapolis",
    "lat": 39.645969,
    "lon": -85.13338,
    "hasAddress": true,
    "address1": "1012 Eastern Avenue",
    "address2": " ",
    "city": "Connersville",
    "state": "IN",
    "zip": "47331",
    "trains": [
      "50-20",
      "51-21"
    ]
  },
  "COT": {
    "name": "Coatesville",
    "code": "COT",
    "tz": "America/New_York",
    "lat": 39.985688,
    "lon": -75.820929,
    "hasAddress": true,
    "address1": "Third Avenue and Fleetwood Street",
    "address2": " ",
    "city": "Coatesville",
    "state": "PA",
    "zip": "19320",
    "trains": [
      "653-21",
      "655-21",
      "656-21",
      "657-21"
    ]
  },
  "COV": {
    "name": "Connellsville",
    "code": "COV",
    "tz": "America/New_York",
    "lat": 40.020282,
    "lon": -79.592813,
    "hasAddress": true,
    "address1": "North Water Street & West Peach Street",
    "address2": " ",
    "city": "Connellsville",
    "state": "PA",
    "zip": "15425",
    "trains": [
      "40-20",
      "40-21",
      "41-19",
      "41-20",
      "41-21"
    ]
  },
  "COX": {
    "name": "Colfax",
    "code": "COX",
    "tz": "America/Los_Angeles",
    "lat": 39.099172,
    "lon": -120.953075,
    "hasAddress": true,
    "address1": "99 Railroad Street",
    "address2": " ",
    "city": "Colfax",
    "state": "CA",
    "zip": "95713",
    "trains": [
      "5-21",
      "5-20",
      "6-20",
      "6-21"
    ]
  },
  "CPN": {
    "name": "Carpinteria",
    "code": "CPN",
    "tz": "America/Los_Angeles",
    "lat": 34.39678,
    "lon": -119.522975,
    "hasAddress": true,
    "address1": "475 Linden Avenue",
    "address2": " ",
    "city": "Carpinteria",
    "state": "CA",
    "zip": "93013",
    "trains": [
      "779-21",
      "784-21",
      "785-21",
      "790-21",
      "794-21"
    ]
  },
  "CRF": {
    "name": "Crawfordsville",
    "code": "CRF",
    "tz": "America/Indiana/Indianapolis",
    "lat": 40.044705,
    "lon": -86.899187,
    "hasAddress": true,
    "address1": "400 North Green Street",
    "address2": " ",
    "city": "Crawfordsville",
    "state": "IN",
    "zip": "47933",
    "trains": [
      "50-20",
      "51-21"
    ]
  },
  "CRH": {
    "name": "Cherry Hill",
    "code": "CRH",
    "tz": "America/New_York",
    "lat": 39.928946,
    "lon": -75.041824,
    "hasAddress": true,
    "address1": "Cornell Avenue & West Marlton Pike",
    "address2": " ",
    "city": "Cherry Hill",
    "state": "NJ",
    "zip": "08002",
    "trains": []
  },
  "CRN": {
    "name": "Creston",
    "code": "CRN",
    "tz": "America/Chicago",
    "lat": 41.05692,
    "lon": -94.361617,
    "hasAddress": true,
    "address1": "116 West Adams Street",
    "address2": " ",
    "city": "Creston",
    "state": "IA",
    "zip": "50801",
    "trains": [
      "5-21",
      "5-20",
      "6-20",
      "6-21"
    ]
  },
  "CRT": {
    "name": "Croton-Harmon",
    "code": "CRT",
    "tz": "America/New_York",
    "lat": 41.189903,
    "lon": -73.882394,
    "hasAddress": true,
    "address1": "4 Veteran's Plaza and 1 Croton Point Avenue",
    "address2": " ",
    "city": "Croton-on-Hudson",
    "state": "NY",
    "zip": "10520",
    "trains": [
      "49-21",
      "64-21",
      "68-21",
      "239-21",
      "241-21",
      "283-21",
      "291-21"
    ]
  },
  "CRV": {
    "name": "Carlinville",
    "code": "CRV",
    "tz": "America/Chicago",
    "lat": 39.279295,
    "lon": -89.889276,
    "hasAddress": true,
    "address1": "128 Alton Road",
    "address2": " ",
    "city": "Carlinville",
    "state": "IL",
    "zip": "62626",
    "trains": [
      "21-21",
      "22-21",
      "305-21",
      "318-21",
      "319-21",
      "1021-20"
    ]
  },
  "CSN": {
    "name": "Clemson",
    "code": "CSN",
    "tz": "America/New_York",
    "lat": 34.691115,
    "lon": -82.832501,
    "hasAddress": true,
    "address1": "1105 Tiger Boulevard",
    "address2": " ",
    "city": "Clemson",
    "state": "SC",
    "zip": "29631",
    "trains": [
      "19-20",
      "19-21",
      "20-21"
    ]
  },
  "CTL": {
    "name": "Centralia",
    "code": "CTL",
    "tz": "America/Los_Angeles",
    "lat": 46.71747,
    "lon": -122.953062,
    "hasAddress": true,
    "address1": "210 Railroad Avenue",
    "address2": " ",
    "city": "Centralia",
    "state": "WA",
    "zip": "98531",
    "trains": [
      "11-20",
      "11-21",
      "14-20",
      "14-21",
      "506-21",
      "507-21",
      "508-21",
      "509-21",
      "518-21"
    ]
  },
  "CUM": {
    "name": "Cumberland",
    "code": "CUM",
    "tz": "America/New_York",
    "lat": 39.650628,
    "lon": -78.758,
    "hasAddress": true,
    "address1": "201 East Harrison Street",
    "address2": " ",
    "city": "Cumberland",
    "state": "MD",
    "zip": "21502",
    "trains": [
      "40-20",
      "40-21",
      "41-19",
      "41-20",
      "41-21"
    ]
  },
  "CUT": {
    "name": "Cut Bank",
    "code": "CUT",
    "tz": "America/Denver",
    "lat": 48.638364,
    "lon": -112.331584,
    "hasAddress": true,
    "address1": "101 BNSF Industrial Site",
    "address2": " ",
    "city": "Cut Bank",
    "state": "MT",
    "zip": "59427",
    "trains": [
      "7-20",
      "7-21",
      "8-20",
      "8-21"
    ]
  },
  "CVS": {
    "name": "Charlottesville",
    "code": "CVS",
    "tz": "America/New_York",
    "lat": 38.031484,
    "lon": -78.491684,
    "hasAddress": true,
    "address1": "810 West Main Street",
    "address2": " ",
    "city": "Charlottesville",
    "state": "VA",
    "zip": "22903",
    "trains": [
      "19-20",
      "19-21",
      "20-21",
      "50-20",
      "51-21",
      "66-21",
      "171-21"
    ]
  },
  "CWH": {
    "name": "Cornwells Heights",
    "code": "CWH",
    "tz": "America/New_York",
    "lat": 40.071663,
    "lon": -74.952187,
    "hasAddress": true,
    "address1": "700 Station Avenue",
    "address2": " ",
    "city": "Cornwells Heights",
    "state": "PA",
    "zip": "19020",
    "trains": [
      "655-21"
    ]
  },
  "CWT": {
    "name": "Chatsworth",
    "code": "CWT",
    "tz": "America/Los_Angeles",
    "lat": 34.253205,
    "lon": -118.599417,
    "hasAddress": true,
    "address1": "10040 Old Depot Plaza Road",
    "address2": " ",
    "city": "Chatsworth",
    "state": "CA",
    "zip": "91311",
    "trains": [
      "779-21",
      "784-21",
      "785-21",
      "790-21",
      "794-21"
    ]
  },
  "CYN": {
    "name": "Cary",
    "code": "CYN",
    "tz": "America/New_York",
    "lat": 35.788294,
    "lon": -78.782246,
    "hasAddress": true,
    "address1": "211 North Academy Street",
    "address2": " ",
    "city": "Cary",
    "state": "NC",
    "zip": "27513",
    "trains": [
      "40-20",
      "40-21",
      "41-19",
      "41-20",
      "41-21",
      "76-21",
      "78-21",
      "79-21",
      "80-21"
    ]
  },
  "DAL": {
    "name": "Dallas",
    "code": "DAL",
    "tz": "America/Chicago",
    "lat": 32.776094,
    "lon": -96.807235,
    "hasAddress": true,
    "address1": "400 South Houston Street",
    "address2": " ",
    "city": "Dallas",
    "state": "TX",
    "zip": "75202",
    "trains": [
      "21-21",
      "22-21",
      "1021-20"
    ]
  },
  "DAN": {
    "name": "Danville",
    "code": "DAN",
    "tz": "America/New_York",
    "lat": 36.58409,
    "lon": -79.383968,
    "hasAddress": true,
    "address1": "677 Craghead Street",
    "address2": " ",
    "city": "Danville",
    "state": "VA",
    "zip": "24541",
    "trains": [
      "19-20",
      "19-21",
      "20-21"
    ]
  },
  "DAV": {
    "name": "Davis",
    "code": "DAV",
    "tz": "America/Los_Angeles",
    "lat": 38.543562,
    "lon": -121.737707,
    "hasAddress": true,
    "address1": "840 Second Street",
    "address2": " ",
    "city": "Davis",
    "state": "CA",
    "zip": "95616",
    "trains": [
      "5-21",
      "5-20",
      "6-20",
      "6-21",
      "11-20",
      "11-21",
      "14-20",
      "14-21",
      "538-21",
      "540-21",
      "542-21",
      "543-21",
      "544-21",
      "545-21",
      "547-21",
      "549-21"
    ]
  },
  "DDG": {
    "name": "Dodge City",
    "code": "DDG",
    "tz": "America/Chicago",
    "lat": 37.752306,
    "lon": -100.016961,
    "hasAddress": true,
    "address1": "201 East Wyatt Earp Boulevard",
    "address2": " ",
    "city": "Dodge City",
    "state": "KS",
    "zip": "67801",
    "trains": [
      "3-20",
      "3-21",
      "4-20",
      "4-21"
    ]
  },
  "DEM": {
    "name": "Deming",
    "code": "DEM",
    "tz": "America/Denver",
    "lat": 32.27177,
    "lon": -107.754346,
    "hasAddress": true,
    "address1": "400 East Railroad Avenue",
    "address2": " ",
    "city": "Deming",
    "state": "NM",
    "zip": "88030",
    "trains": [
      "2-19"
    ]
  },
  "DEN": {
    "name": "Denver",
    "code": "DEN",
    "tz": "America/Denver",
    "lat": 39.752959,
    "lon": -104.999929,
    "hasAddress": true,
    "address1": "1701 Wynkoop Street",
    "address2": " ",
    "city": "Denver",
    "state": "CO",
    "zip": "80202",
    "trains": [
      "5-21",
      "5-20",
      "6-20",
      "6-21"
    ]
  },
  "DER": {
    "name": "Dearborn",
    "code": "DER",
    "tz": "America/Detroit",
    "lat": 42.307167,
    "lon": -83.235311,
    "hasAddress": true,
    "address1": "21201 Michigan Avenue",
    "address2": " ",
    "city": "Dearborn",
    "state": "MI",
    "zip": "48124",
    "trains": [
      "352-21",
      "354-21",
      "355-21"
    ]
  },
  "DET": {
    "name": "Detroit",
    "code": "DET",
    "tz": "America/Detroit",
    "lat": 42.368097,
    "lon": -83.072397,
    "hasAddress": true,
    "address1": "11 West Baltimore Avenue",
    "address2": " ",
    "city": "Detroit",
    "state": "MI",
    "zip": "48202",
    "trains": [
      "352-21",
      "354-21",
      "355-21"
    ]
  },
  "DFB": {
    "name": "Deerfield Beach",
    "code": "DFB",
    "tz": "America/New_York",
    "lat": 26.317069,
    "lon": -80.122147,
    "hasAddress": true,
    "address1": "1300 West Hillsboro Boulevard",
    "address2": " ",
    "city": "Deerfield Beach",
    "state": "FL",
    "zip": "33442",
    "trains": [
      "40-20",
      "40-21",
      "41-19",
      "41-20",
      "41-21",
      "97-20",
      "97-21",
      "98-21"
    ]
  },
  "DHM": {
    "name": "Durham-UNH",
    "code": "DHM",
    "tz": "America/New_York",
    "lat": 43.139328,
    "lon": -70.936013,
    "hasAddress": true,
    "address1": "3 Depot Road",
    "address2": " ",
    "city": "Durham",
    "state": "NH",
    "zip": "03824",
    "trains": [
      "687-21",
      "688-21"
    ]
  },
  "DIL": {
    "name": "Dillon",
    "code": "DIL",
    "tz": "America/New_York",
    "lat": 34.417647,
    "lon": -79.372301,
    "hasAddress": true,
    "address1": "100 North Railroad Avenue",
    "address2": " ",
    "city": "Dillon",
    "state": "SC",
    "zip": "29536",
    "trains": [
      "89-21",
      "90-21"
    ]
  },
  "DLB": {
    "name": "Delray Beach",
    "code": "DLB",
    "tz": "America/New_York",
    "lat": 26.454021,
    "lon": -80.091154,
    "hasAddress": true,
    "address1": "345 South Congress Avenue",
    "address2": " ",
    "city": "Delray Beach",
    "state": "FL",
    "zip": "33444",
    "trains": [
      "40-20",
      "40-21",
      "41-19",
      "41-20",
      "41-21",
      "97-20",
      "97-21",
      "98-21"
    ]
  },
  "DLD": {
    "name": "DeLand",
    "code": "DLD",
    "tz": "America/New_York",
    "lat": 29.017849,
    "lon": -81.352477,
    "hasAddress": true,
    "address1": "2491 Old New York Avenue",
    "address2": " ",
    "city": "DeLand",
    "state": "FL",
    "zip": "32720",
    "trains": [
      "40-20",
      "40-21",
      "41-19",
      "41-20",
      "41-21",
      "97-20",
      "97-21",
      "98-21"
    ]
  },
  "DLK": {
    "name": "Detroit Lakes",
    "code": "DLK",
    "tz": "America/Chicago",
    "lat": 46.819692,
    "lon": -95.845998,
    "hasAddress": true,
    "address1": "116 Pioneer Street",
    "address2": " ",
    "city": "Detroit Lakes",
    "state": "MN",
    "zip": "56501",
    "trains": [
      "7-20",
      "7-21",
      "8-20",
      "8-21"
    ]
  },
  "DNC": {
    "name": "Durham",
    "code": "DNC",
    "tz": "America/New_York",
    "lat": 35.997347,
    "lon": -78.906299,
    "hasAddress": true,
    "address1": "601 West Main Street",
    "address2": " ",
    "city": "Durham",
    "state": "NC",
    "zip": "27701",
    "trains": [
      "76-21",
      "78-21",
      "79-21",
      "80-21"
    ]
  },
  "DNK": {
    "name": "Denmark",
    "code": "DNK",
    "tz": "America/New_York",
    "lat": 33.326184,
    "lon": -81.143635,
    "hasAddress": true,
    "address1": "200 West Baruch Street",
    "address2": " ",
    "city": "Denmark",
    "state": "SC",
    "zip": "29042",
    "trains": [
      "40-20",
      "40-21",
      "41-19",
      "41-20",
      "41-21"
    ]
  },
  "DOA": {
    "name": "Dowagiac",
    "code": "DOA",
    "tz": "America/Detroit",
    "lat": 41.980941,
    "lon": -86.109041,
    "hasAddress": true,
    "address1": "200 Depot Drive",
    "address2": " ",
    "city": "Dowagiac",
    "state": "MI",
    "zip": "49047",
    "trains": [
      "355-21",
      "364-21"
    ]
  },
  "DOV": {
    "name": "Dover",
    "code": "DOV",
    "tz": "America/New_York",
    "lat": 43.197968,
    "lon": -70.878361,
    "hasAddress": true,
    "address1": "33 Chestnut Street",
    "address2": " ",
    "city": "Dover",
    "state": "NH",
    "zip": "03820",
    "trains": [
      "687-21",
      "688-21"
    ]
  },
  "DOW": {
    "name": "Downingtown",
    "code": "DOW",
    "tz": "America/New_York",
    "lat": 40.002193,
    "lon": -75.710775,
    "hasAddress": true,
    "address1": "159 Viaduct Avenue",
    "address2": " ",
    "city": "Downingtown",
    "state": "PA",
    "zip": "19335",
    "trains": [
      "620-21",
      "653-21",
      "655-21",
      "656-21",
      "657-21",
      "658-21"
    ]
  },
  "DQN": {
    "name": "Du Quoin",
    "code": "DQN",
    "tz": "America/Chicago",
    "lat": 38.012328,
    "lon": -89.240254,
    "hasAddress": true,
    "address1": "20 North Chestnut Street",
    "address2": " ",
    "city": "Du Quoin",
    "state": "IL",
    "zip": "62832",
    "trains": [
      "392-21",
      "393-21"
    ]
  },
  "DRD": {
    "name": "Durand",
    "code": "DRD",
    "tz": "America/Detroit",
    "lat": 42.909495,
    "lon": -83.98232,
    "hasAddress": true,
    "address1": "200 South Railroad Street",
    "address2": " ",
    "city": "Durand",
    "state": "MI",
    "zip": "48429",
    "trains": [
      "364-21"
    ]
  },
  "DRT": {
    "name": "Del Rio",
    "code": "DRT",
    "tz": "America/Chicago",
    "lat": 29.362202,
    "lon": -100.902662,
    "hasAddress": true,
    "address1": "100 North Main Street",
    "address2": " ",
    "city": "Del Rio",
    "state": "TX",
    "zip": "78840",
    "trains": [
      "2-19"
    ]
  },
  "DUN": {
    "name": "Dunsmuir",
    "code": "DUN",
    "tz": "America/Los_Angeles",
    "lat": 41.211127,
    "lon": -122.270587,
    "hasAddress": true,
    "address1": "5750 Sacramento Avenue",
    "address2": " ",
    "city": "Dunsmuir",
    "state": "CA",
    "zip": "96025",
    "trains": [
      "11-20",
      "11-21",
      "14-20",
      "14-21"
    ]
  },
  "DVL": {
    "name": "Devils Lake",
    "code": "DVL",
    "tz": "America/Chicago",
    "lat": 48.110468,
    "lon": -98.861372,
    "hasAddress": true,
    "address1": "Railroad Avenue and Third Street",
    "address2": " ",
    "city": "Devils Lake",
    "state": "ND",
    "zip": "58301",
    "trains": [
      "7-20",
      "7-21",
      "8-20",
      "8-21"
    ]
  },
  "DWT": {
    "name": "Dwight",
    "code": "DWT",
    "tz": "America/Chicago",
    "lat": 41.089854,
    "lon": -88.430707,
    "hasAddress": true,
    "address1": "401 South Columbia Street",
    "address2": " ",
    "city": "Dwight",
    "state": "IL",
    "zip": "60420",
    "trains": [
      "305-21",
      "318-21",
      "319-21"
    ]
  },
  "DYE": {
    "name": "Dyer",
    "code": "DYE",
    "tz": "America/Chicago",
    "lat": 41.515413,
    "lon": -87.518076,
    "hasAddress": true,
    "address1": "913 Sheffield Avenue",
    "address2": " ",
    "city": "Dyer",
    "state": "IN",
    "zip": "46311",
    "trains": [
      "50-20",
      "51-21"
    ]
  },
  "EDM": {
    "name": "Edmonds",
    "code": "EDM",
    "tz": "America/Los_Angeles",
    "lat": 47.811081,
    "lon": -122.384141,
    "hasAddress": true,
    "address1": "211 Railroad Avenue",
    "address2": " ",
    "city": "Edmonds",
    "state": "WA",
    "zip": "98020",
    "trains": [
      "7-20",
      "7-21",
      "8-20",
      "8-21",
      "518-21",
      "519-21"
    ]
  },
  "EFG": {
    "name": "Effingham",
    "code": "EFG",
    "tz": "America/Chicago",
    "lat": 39.117059,
    "lon": -88.54711,
    "hasAddress": true,
    "address1": "401 West National Avenue",
    "address2": " ",
    "city": "Effingham",
    "state": "IL",
    "zip": "62401",
    "trains": [
      "58-21",
      "392-21",
      "393-21"
    ]
  },
  "EGH": {
    "name": "Egg Harbor",
    "code": "EGH",
    "tz": "America/New_York",
    "lat": 39.526494,
    "lon": -74.64802,
    "hasAddress": true,
    "address1": "South Philadelphia Avenue & Atlantic Avenue",
    "address2": " ",
    "city": "Egg Harbor City",
    "state": "NJ",
    "zip": "08215",
    "trains": []
  },
  "EKH": {
    "name": "Elkhart",
    "code": "EKH",
    "tz": "America/Indiana/Indianapolis",
    "lat": 41.680748,
    "lon": -85.971848,
    "hasAddress": true,
    "address1": "131 Tyler Avenue",
    "address2": " ",
    "city": "Elkhart",
    "state": "IN",
    "zip": "46515",
    "trains": [
      "40-20",
      "40-21",
      "41-19",
      "41-20",
      "41-21",
      "49-21"
    ]
  },
  "ELK": {
    "name": "Elko",
    "code": "ELK",
    "tz": "America/Los_Angeles",
    "lat": 40.836483,
    "lon": -115.75053,
    "hasAddress": true,
    "address1": "1300 Water Street (Train 5)",
    "address2": "1301 Sharps Access Road (Train 6)",
    "city": "Elko",
    "state": "NV",
    "zip": "89801",
    "trains": [
      "5-21",
      "5-20",
      "6-20",
      "6-21"
    ]
  },
  "ELP": {
    "name": "El Paso",
    "code": "ELP",
    "tz": "America/Denver",
    "lat": 31.757346,
    "lon": -106.495644,
    "hasAddress": true,
    "address1": "700 West San Francisco Avenue",
    "address2": " ",
    "city": "El Paso",
    "state": "TX",
    "zip": "79901",
    "trains": [
      "2-19"
    ]
  },
  "ELT": {
    "name": "Elizabethtown",
    "code": "ELT",
    "tz": "America/New_York",
    "lat": 40.147028,
    "lon": -76.612234,
    "hasAddress": true,
    "address1": "50 South Wilson Avenue ",
    "address2": " ",
    "city": "Elizabethtown",
    "state": "PA",
    "zip": "17022",
    "trains": [
      "620-21",
      "653-21",
      "655-21",
      "656-21",
      "657-21",
      "658-21"
    ]
  },
  "ELY": {
    "name": "Elyria",
    "code": "ELY",
    "tz": "America/New_York",
    "lat": 41.370033,
    "lon": -82.096685,
    "hasAddress": true,
    "address1": "410 East River Road",
    "address2": " ",
    "city": "Elyria",
    "state": "OH",
    "zip": "44035",
    "trains": [
      "40-20",
      "40-21",
      "41-19",
      "41-20",
      "41-21",
      "49-21"
    ]
  },
  "EMY": {
    "name": "Emeryville",
    "code": "EMY",
    "tz": "America/Los_Angeles",
    "lat": 37.840474,
    "lon": -122.291615,
    "hasAddress": true,
    "address1": "5885 Horton Street",
    "address2": " ",
    "city": "Emeryville",
    "state": "CA",
    "zip": "94608",
    "trains": [
      "5-21",
      "5-20",
      "6-20",
      "6-21",
      "11-20",
      "11-21",
      "14-20",
      "14-21",
      "538-21",
      "540-21",
      "542-21",
      "543-21",
      "544-21",
      "545-21",
      "547-21",
      "549-21",
      "714-21",
      "715-21",
      "716-21",
      "717-21",
      "718-21",
      "719-21"
    ]
  },
  "EPH": {
    "name": "Ephrata",
    "code": "EPH",
    "tz": "America/Los_Angeles",
    "lat": 47.320948,
    "lon": -119.549267,
    "hasAddress": true,
    "address1": "90 Alder Street NW",
    "address2": " ",
    "city": "Ephrata",
    "state": "WA",
    "zip": "98823",
    "trains": [
      "7-20",
      "7-21",
      "8-20",
      "8-21"
    ]
  },
  "ERI": {
    "name": "Erie",
    "code": "ERI",
    "tz": "America/New_York",
    "lat": 42.120847,
    "lon": -80.082444,
    "hasAddress": true,
    "address1": "125 West 14th Street",
    "address2": " ",
    "city": "Erie",
    "state": "PA",
    "zip": "16501",
    "trains": [
      "49-21"
    ]
  },
  "ESM": {
    "name": "Essex",
    "code": "ESM",
    "tz": "America/Denver",
    "lat": 48.275543,
    "lon": -113.610942,
    "hasAddress": true,
    "address1": "290 Izaak Walton Inn Road",
    "address2": " ",
    "city": "Essex",
    "state": "MT",
    "zip": "59916",
    "trains": [
      "7-20",
      "7-21",
      "8-20",
      "8-21"
    ]
  },
  "ESX": {
    "name": "Essex Junction",
    "code": "ESX",
    "tz": "America/New_York",
    "lat": 44.492466,
    "lon": -73.110277,
    "hasAddress": true,
    "address1": "29 Railroad Avenue",
    "address2": " ",
    "city": "Essex Junction",
    "state": "VT",
    "zip": "05452",
    "trains": [
      "55-21",
      "56-21"
    ]
  },
  "EUG": {
    "name": "Eugene-Springfield",
    "code": "EUG",
    "tz": "America/Los_Angeles",
    "lat": 44.055043,
    "lon": -123.092361,
    "hasAddress": true,
    "address1": "433 Willamette Street",
    "address2": " ",
    "city": "Eugene",
    "state": "OR",
    "zip": "97401",
    "trains": [
      "11-20",
      "11-21",
      "14-20",
      "14-21",
      "507-21",
      "508-21"
    ]
  },
  "EVR": {
    "name": "Everett",
    "code": "EVR",
    "tz": "America/Los_Angeles",
    "lat": 47.975401,
    "lon": -122.197858,
    "hasAddress": true,
    "address1": "3201 Smith Avenue",
    "address2": " ",
    "city": "Everett",
    "state": "WA",
    "zip": "98201",
    "trains": [
      "7-20",
      "7-21",
      "8-20",
      "8-21",
      "518-21",
      "519-21"
    ]
  },
  "EWR": {
    "name": "Newark Airport",
    "code": "EWR",
    "tz": "America/New_York",
    "lat": 40.696618,
    "lon": -74.18229,
    "hasAddress": true,
    "address1": "3 Brewster Road",
    "address2": " ",
    "city": "Newark",
    "state": "NJ",
    "zip": "07114",
    "trains": [
      "85-21",
      "94-21",
      "136-21",
      "137-21",
      "148-21",
      "171-21",
      "176-21",
      "178-21",
      "193-21",
      "639-21"
    ]
  },
  "EXR": {
    "name": "Exeter",
    "code": "EXR",
    "tz": "America/New_York",
    "lat": 42.98102,
    "lon": -70.9587,
    "hasAddress": true,
    "address1": "60 Lincoln Street",
    "address2": " ",
    "city": "Exeter",
    "state": "NH",
    "zip": "03833",
    "trains": [
      "687-21",
      "688-21"
    ]
  },
  "EXT": {
    "name": "Exton",
    "code": "EXT",
    "tz": "America/New_York",
    "lat": 40.019291,
    "lon": -75.621713,
    "hasAddress": true,
    "address1": "445 Walkertown Road",
    "address2": " ",
    "city": "Exton",
    "state": "PA",
    "zip": "19341",
    "trains": [
      "620-21",
      "653-21",
      "655-21",
      "656-21",
      "657-21",
      "658-21"
    ]
  },
  "FAR": {
    "name": "Fargo",
    "code": "FAR",
    "tz": "America/Chicago",
    "lat": 46.880982,
    "lon": -96.785372,
    "hasAddress": true,
    "address1": "420 4th Street North",
    "address2": " ",
    "city": "Fargo",
    "state": "ND",
    "zip": "58102",
    "trains": [
      "7-20",
      "7-21",
      "8-20",
      "8-21"
    ]
  },
  "FAY": {
    "name": "Fayetteville",
    "code": "FAY",
    "tz": "America/New_York",
    "lat": 35.054993,
    "lon": -78.884788,
    "hasAddress": true,
    "address1": "472 Hay Street",
    "address2": " ",
    "city": "Fayetteville",
    "state": "NC",
    "zip": "28301",
    "trains": [
      "89-21",
      "90-21",
      "97-20",
      "97-21",
      "98-21"
    ]
  },
  "FBG": {
    "name": "Fredericksburg",
    "code": "FBG",
    "tz": "America/New_York",
    "lat": 38.29808,
    "lon": -77.457707,
    "hasAddress": true,
    "address1": "425 Princess Anne Street",
    "address2": " ",
    "city": "Fredericksburg",
    "state": "VA",
    "zip": "22401",
    "trains": [
      "65-21",
      "79-21",
      "80-21",
      "85-21",
      "93-21",
      "94-21",
      "97-20",
      "97-21",
      "98-21",
      "125-21",
      "138-21",
      "186-21"
    ]
  },
  "FED": {
    "name": "Fort Edward",
    "code": "FED",
    "tz": "America/New_York",
    "lat": 43.269603,
    "lon": -73.58055,
    "hasAddress": true,
    "address1": "70 East Street",
    "address2": " ",
    "city": "Fort Edward",
    "state": "NY",
    "zip": "12828",
    "trains": [
      "68-21",
      "291-21"
    ]
  },
  "FFV": {
    "name": "Fairfield-Vacaville",
    "code": "FFV",
    "tz": "America/Los_Angeles",
    "lat": 38.285626,
    "lon": -121.967926,
    "hasAddress": true,
    "address1": "4921 Vanden Road",
    "address2": " ",
    "city": "Fairfield",
    "state": "CA",
    "zip": "94533",
    "trains": [
      "538-21",
      "540-21",
      "542-21",
      "543-21",
      "544-21",
      "545-21",
      "547-21",
      "549-21"
    ]
  },
  "FLG": {
    "name": "Flagstaff",
    "code": "FLG",
    "tz": "America/Phoenix",
    "lat": 35.197374,
    "lon": -111.648871,
    "hasAddress": true,
    "address1": "1 East Route 66",
    "address2": " ",
    "city": "Flagstaff",
    "state": "AZ",
    "zip": "86001",
    "trains": [
      "3-20",
      "3-21",
      "4-20",
      "4-21"
    ]
  },
  "FLN": {
    "name": "Flint",
    "code": "FLN",
    "tz": "America/Detroit",
    "lat": 43.015425,
    "lon": -83.651728,
    "hasAddress": true,
    "address1": "1407 South Dort Highway",
    "address2": " ",
    "city": "Flint",
    "state": "MI",
    "zip": "48503",
    "trains": [
      "364-21"
    ]
  },
  "FLO": {
    "name": "Florence",
    "code": "FLO",
    "tz": "America/New_York",
    "lat": 34.199157,
    "lon": -79.757056,
    "hasAddress": true,
    "address1": "805 East Day Street",
    "address2": " ",
    "city": "Florence",
    "state": "SC",
    "zip": "29506",
    "trains": [
      "89-21",
      "90-21",
      "97-20",
      "97-21",
      "98-21"
    ]
  },
  "FMD": {
    "name": "Fort Madison",
    "code": "FMD",
    "tz": "America/Chicago",
    "lat": 40.629558,
    "lon": -91.313529,
    "hasAddress": true,
    "address1": "810 10th Street ",
    "address2": "Suite 1",
    "city": "Fort Madison",
    "state": "IA",
    "zip": "52627",
    "trains": [
      "3-20",
      "3-21",
      "4-20",
      "4-21"
    ]
  },
  "FMG": {
    "name": "Fort Morgan",
    "code": "FMG",
    "tz": "America/Denver",
    "lat": 40.247169,
    "lon": -103.802818,
    "hasAddress": true,
    "address1": "South Ensign Street and Main Street",
    "address2": " ",
    "city": "Fort Morgan",
    "state": "CO",
    "zip": "80701",
    "trains": [
      "5-21",
      "5-20",
      "6-20",
      "6-21"
    ]
  },
  "FMT": {
    "name": "Fremont",
    "code": "FMT",
    "tz": "America/Los_Angeles",
    "lat": 37.559093,
    "lon": -122.007496,
    "hasAddress": true,
    "address1": "37260 Fremont Boulevard",
    "address2": " ",
    "city": "Fremont",
    "state": "CA",
    "zip": "94536",
    "trains": [
      "538-21",
      "542-21",
      "543-21",
      "544-21",
      "547-21"
    ]
  },
  "FNO": {
    "name": "Fresno",
    "code": "FNO",
    "tz": "America/Los_Angeles",
    "lat": 36.738457,
    "lon": -119.782926,
    "hasAddress": true,
    "address1": "2650 Tulare Street",
    "address2": " ",
    "city": "Fresno",
    "state": "CA",
    "zip": "93721",
    "trains": [
      "714-21",
      "715-21",
      "716-21",
      "717-21",
      "718-21",
      "719-21"
    ]
  },
  "FRA": {
    "name": "Framingham",
    "code": "FRA",
    "tz": "America/New_York",
    "lat": 42.275993,
    "lon": -71.420033,
    "hasAddress": true,
    "address1": "417 Waverly Street",
    "address2": " ",
    "city": "Framingham",
    "state": "MA",
    "zip": "01702",
    "trains": []
  },
  "FRE": {
    "name": "Freeport",
    "code": "FRE",
    "tz": "America/New_York",
    "lat": 43.855035,
    "lon": -70.102358,
    "hasAddress": true,
    "address1": "23 Depot Road",
    "address2": " ",
    "city": "Freeport",
    "state": "ME",
    "zip": "04032",
    "trains": [
      "687-21",
      "688-21"
    ]
  },
  "FTC": {
    "name": "Ticonderoga",
    "code": "FTC",
    "tz": "America/New_York",
    "lat": 43.853788,
    "lon": -73.389681,
    "hasAddress": true,
    "address1": "NYS Hwy 74 and Sandy Redoubt",
    "address2": " ",
    "city": "Ticonderoga",
    "state": "NY",
    "zip": "12883",
    "trains": [
      "68-21"
    ]
  },
  "FTL": {
    "name": "Fort Lauderdale",
    "code": "FTL",
    "tz": "America/New_York",
    "lat": 26.119256,
    "lon": -80.17,
    "hasAddress": true,
    "address1": "200 Southwest 21st Terrace",
    "address2": " ",
    "city": "Fort Lauderdale",
    "state": "FL",
    "zip": "33312",
    "trains": [
      "40-20",
      "40-21",
      "41-19",
      "41-20",
      "41-21",
      "97-20",
      "97-21",
      "98-21"
    ]
  },
  "FTN": {
    "name": "Fulton",
    "code": "FTN",
    "tz": "America/Chicago",
    "lat": 36.525704,
    "lon": -88.888772,
    "hasAddress": true,
    "address1": "21 Newton Road",
    "address2": " ",
    "city": "Fulton",
    "state": "KY",
    "zip": "42041",
    "trains": [
      "58-21"
    ]
  },
  "FTW": {
    "name": "Fort Worth",
    "code": "FTW",
    "tz": "America/Chicago",
    "lat": 32.752563,
    "lon": -97.326673,
    "hasAddress": true,
    "address1": "1001 Jones Street",
    "address2": " ",
    "city": "Fort Worth",
    "state": "TX",
    "zip": "76102",
    "trains": [
      "21-21",
      "22-21",
      "822-21",
      "1021-20"
    ]
  },
  "FUL": {
    "name": "Fullerton",
    "code": "FUL",
    "tz": "America/Los_Angeles",
    "lat": 33.868969,
    "lon": -117.922849,
    "hasAddress": true,
    "address1": "120 East Santa Fe Avenue",
    "address2": " ",
    "city": "Fullerton",
    "state": "CA",
    "zip": "92832",
    "trains": [
      "3-20",
      "3-21",
      "4-20",
      "4-21",
      "580-21",
      "582-21",
      "587-21",
      "779-21",
      "784-21",
      "785-21",
      "790-21",
      "794-21"
    ]
  },
  "GAC": {
    "name": "Santa Clara - Great America",
    "code": "GAC",
    "tz": "America/Los_Angeles",
    "lat": 37.406778,
    "lon": -121.967003,
    "hasAddress": true,
    "address1": "5099 Stars and Stripes Drive",
    "address2": " ",
    "city": "Santa Clara",
    "state": "CA",
    "zip": "95054",
    "trains": [
      "538-21",
      "542-21",
      "543-21",
      "544-21",
      "547-21"
    ]
  },
  "GAS": {
    "name": "Gastonia",
    "code": "GAS",
    "tz": "America/New_York",
    "lat": 35.269186,
    "lon": -81.162366,
    "hasAddress": true,
    "address1": "350 Hancock Street",
    "address2": " ",
    "city": "Gastonia",
    "state": "NC",
    "zip": "28054",
    "trains": [
      "19-20",
      "19-21",
      "20-21"
    ]
  },
  "GBB": {
    "name": "Galesburg",
    "code": "GBB",
    "tz": "America/Chicago",
    "lat": 40.944678,
    "lon": -90.364106,
    "hasAddress": true,
    "address1": "225 South Seminary Street",
    "address2": " ",
    "city": "Galesburg",
    "state": "IL",
    "zip": "61401",
    "trains": [
      "3-20",
      "3-21",
      "4-20",
      "4-21",
      "5-21",
      "5-20",
      "6-20",
      "6-21",
      "382-21",
      "383-21"
    ]
  },
  "GCK": {
    "name": "Garden City",
    "code": "GCK",
    "tz": "America/Chicago",
    "lat": 37.964365,
    "lon": -100.873256,
    "hasAddress": true,
    "address1": "100 North 7th Street",
    "address2": " ",
    "city": "Garden City",
    "state": "KS",
    "zip": "67846",
    "trains": [
      "3-20",
      "3-21",
      "4-20",
      "4-21"
    ]
  },
  "GDL": {
    "name": "Glendale",
    "code": "GDL",
    "tz": "America/Los_Angeles",
    "lat": 34.123706,
    "lon": -118.258868,
    "hasAddress": true,
    "address1": "400 West Cerritos Avenue",
    "address2": " ",
    "city": "Glendale",
    "state": "CA",
    "zip": "91204",
    "trains": [
      "779-21",
      "784-21",
      "785-21",
      "790-21",
      "794-21"
    ]
  },
  "GFD": {
    "name": "Greenfield",
    "code": "GFD",
    "tz": "America/New_York",
    "lat": 42.585458,
    "lon": -72.600765,
    "hasAddress": true,
    "address1": "12 Olive Street",
    "address2": " ",
    "city": "Greenfield",
    "state": "MA",
    "zip": "01301",
    "trains": [
      "55-21",
      "56-21",
      "479-21",
      "494-21"
    ]
  },
  "GFK": {
    "name": "Grand Forks",
    "code": "GFK",
    "tz": "America/Chicago",
    "lat": 47.917522,
    "lon": -97.110835,
    "hasAddress": true,
    "address1": "5555 DeMers Avenue",
    "address2": " ",
    "city": "Grand Forks",
    "state": "ND",
    "zip": "58201",
    "trains": [
      "7-20",
      "7-21",
      "8-20",
      "8-21"
    ]
  },
  "GGW": {
    "name": "Glasgow",
    "code": "GGW",
    "tz": "America/Denver",
    "lat": 48.194854,
    "lon": -106.636188,
    "hasAddress": true,
    "address1": "424 1st  Avenue South",
    "address2": " ",
    "city": "Glasgow",
    "state": "MT",
    "zip": "59230",
    "trains": [
      "7-20",
      "7-21",
      "8-20",
      "8-21"
    ]
  },
  "GJT": {
    "name": "Grand Junction",
    "code": "GJT",
    "tz": "America/Denver",
    "lat": 39.064375,
    "lon": -108.569929,
    "hasAddress": true,
    "address1": "339 South 1st Street",
    "address2": " ",
    "city": "Grand Junction",
    "state": "CO",
    "zip": "81501",
    "trains": [
      "5-21",
      "5-20",
      "6-20",
      "6-21"
    ]
  },
  "GLE": {
    "name": "Gainesville",
    "code": "GLE",
    "tz": "America/Chicago",
    "lat": 33.625159,
    "lon": -97.140896,
    "hasAddress": true,
    "address1": "605 East California Street",
    "address2": " ",
    "city": "Gainesville",
    "state": "TX",
    "zip": "76240",
    "trains": [
      "822-21"
    ]
  },
  "GLM": {
    "name": "Gilman",
    "code": "GLM",
    "tz": "America/Chicago",
    "lat": 40.752547,
    "lon": -87.998055,
    "hasAddress": true,
    "address1": "800 US Highway 24 West",
    "address2": " ",
    "city": "Gilman",
    "state": "IL",
    "zip": "60938",
    "trains": [
      "392-21",
      "393-21"
    ]
  },
  "GLN": {
    "name": "Glenview",
    "code": "GLN",
    "tz": "America/Chicago",
    "lat": 42.075038,
    "lon": -87.805562,
    "hasAddress": true,
    "address1": "1116 Depot Street",
    "address2": " ",
    "city": "Glenview",
    "state": "IL",
    "zip": "60025",
    "trains": [
      "7-20",
      "7-21",
      "8-20",
      "8-21",
      "342-21"
    ]
  },
  "GLP": {
    "name": "Gallup",
    "code": "GLP",
    "tz": "America/Denver",
    "lat": 35.529176,
    "lon": -108.740548,
    "hasAddress": true,
    "address1": "201 East Highway 66",
    "address2": " ",
    "city": "Gallup",
    "state": "NM",
    "zip": "87301",
    "trains": [
      "3-20",
      "3-21",
      "4-20",
      "4-21"
    ]
  },
  "GRIM": {
    "name": "Grimsby",
    "code": "GRIM",
    "tz": "America/Toronto",
    "lat": 43.195949,
    "lon": -79.557945,
    "hasAddress": true,
    "address1": "99 Ontario Street",
    "address2": " ",
    "city": "Grimsby",
    "state": "ON",
    "zip": "L3M 3H6",
    "trains": [
      "v97-21",
      "v98-21"
    ]
  },
  "GNB": {
    "name": "Greensburg",
    "code": "GNB",
    "tz": "America/New_York",
    "lat": 40.304986,
    "lon": -79.546893,
    "hasAddress": true,
    "address1": "Harrison Avenue and Seton Hill Drive",
    "address2": " ",
    "city": "Greensburg",
    "state": "PA",
    "zip": "15601",
    "trains": []
  },
  "GNS": {
    "name": "Gainesville",
    "code": "GNS",
    "tz": "America/New_York",
    "lat": 34.288897,
    "lon": -83.819694,
    "hasAddress": true,
    "address1": "116 Industrial Boulevard",
    "address2": " ",
    "city": "Gainesville",
    "state": "GA",
    "zip": "30501",
    "trains": [
      "19-20",
      "19-21",
      "20-21"
    ]
  },
  "GPK": {
    "name": "East Glacier Park",
    "code": "GPK",
    "tz": "America/Denver",
    "lat": 48.442333,
    "lon": -113.219523,
    "hasAddress": true,
    "address1": "400 Highway 49 North",
    "address2": " ",
    "city": "East Glacier Park",
    "state": "MT",
    "zip": "59434",
    "trains": []
  },
  "GRA": {
    "name": "Granby",
    "code": "GRA",
    "tz": "America/Denver",
    "lat": 40.084188,
    "lon": -105.935503,
    "hasAddress": true,
    "address1": "438 Railroad Avenue",
    "address2": " ",
    "city": "Granby",
    "state": "CO",
    "zip": "80446",
    "trains": [
      "5-21",
      "5-20",
      "6-20",
      "6-21"
    ]
  },
  "GRI": {
    "name": "Green River",
    "code": "GRI",
    "tz": "America/Denver",
    "lat": 38.992039,
    "lon": -110.165228,
    "hasAddress": true,
    "address1": "250 South Broadway",
    "address2": " ",
    "city": "Green River",
    "state": "UT",
    "zip": "84525",
    "trains": [
      "5-21",
      "5-20",
      "6-20",
      "6-21"
    ]
  },
  "GRO": {
    "name": "Greensboro",
    "code": "GRO",
    "tz": "America/New_York",
    "lat": 36.069797,
    "lon": -79.78708,
    "hasAddress": true,
    "address1": "236 East Washington Street",
    "address2": " ",
    "city": "Greensboro",
    "state": "NC",
    "zip": "27401",
    "trains": [
      "19-20",
      "19-21",
      "20-21",
      "76-21",
      "78-21",
      "79-21",
      "80-21"
    ]
  },
  "GRR": {
    "name": "Grand Rapids",
    "code": "GRR",
    "tz": "America/Detroit",
    "lat": 42.955788,
    "lon": -85.672447,
    "hasAddress": true,
    "address1": "440 Century Avenue SW",
    "address2": " ",
    "city": "Grand Rapids",
    "state": "MI",
    "zip": "49503",
    "trains": [
      "370-21"
    ]
  },
  "GRV": {
    "name": "Greenville",
    "code": "GRV",
    "tz": "America/New_York",
    "lat": 34.858256,
    "lon": -82.413486,
    "hasAddress": true,
    "address1": "1120 West Washington Street",
    "address2": " ",
    "city": "Greenville",
    "state": "SC",
    "zip": "29601",
    "trains": [
      "19-20",
      "19-21",
      "20-21"
    ]
  },
  "GSC": {
    "name": "Glenwood Springs",
    "code": "GSC",
    "tz": "America/Denver",
    "lat": 39.547903,
    "lon": -107.323218,
    "hasAddress": true,
    "address1": "413 7th Street",
    "address2": " ",
    "city": "Glenwood Springs",
    "state": "CO",
    "zip": "81601",
    "trains": [
      "5-21",
      "5-20",
      "6-20",
      "6-21"
    ]
  },
  "GTA": {
    "name": "Goleta",
    "code": "GTA",
    "tz": "America/Los_Angeles",
    "lat": 34.437729,
    "lon": -119.843092,
    "hasAddress": true,
    "address1": "25 South La Patera Lane",
    "address2": " ",
    "city": "Goleta",
    "state": "CA",
    "zip": "93117",
    "trains": [
      "779-21",
      "784-21",
      "785-21",
      "790-21",
      "794-21"
    ]
  },
  "GUA": {
    "name": "Guadalupe",
    "code": "GUA",
    "tz": "America/Los_Angeles",
    "lat": 34.962927,
    "lon": -120.57341,
    "hasAddress": true,
    "address1": "330 Guadalupe Street",
    "address2": " ",
    "city": "Guadalupe",
    "state": "CA",
    "zip": "93434",
    "trains": [
      "779-21",
      "794-21"
    ]
  },
  "GUF": {
    "name": "Gulfport",
    "code": "GUF",
    "lat": 30.369036,
    "lon": -89.09478,
    "hasAddress": true,
    "address1": "1419 27th Avenue",
    "address2": " ",
    "city": "Gulfport",
    "state": "MS",
    "zip": "39501",
    "trains": [
      "25-21",
      "26-21"
    ]
  },
  "GUI": {
    "name": "Guilford",
    "code": "GUI",
    "tz": "America/New_York",
    "lat": 41.275369,
    "lon": -72.67361,
    "hasAddress": true,
    "address1": "325 Old Whitfield Street",
    "address2": " ",
    "city": "Guilford",
    "state": "CT",
    "zip": "06437",
    "trains": []
  },
  "GVB": {
    "name": "Grover Beach",
    "code": "GVB",
    "tz": "America/Los_Angeles",
    "lat": 35.12126,
    "lon": -120.629266,
    "hasAddress": true,
    "address1": "180 West Grand Avenue",
    "address2": " ",
    "city": "Grover Beach",
    "state": "CA",
    "zip": "93433",
    "trains": [
      "779-21",
      "794-21"
    ]
  },
  "GWD": {
    "name": "Greenwood",
    "code": "GWD",
    "tz": "America/Chicago",
    "lat": 33.517159,
    "lon": -90.176454,
    "hasAddress": true,
    "address1": "Carrollton Avenue and East Gibson Street",
    "address2": " ",
    "city": "Greenwood",
    "state": "MS",
    "zip": "38930",
    "trains": [
      "58-21"
    ]
  },
  "HAM": {
    "name": "Hamlet",
    "code": "HAM",
    "tz": "America/New_York",
    "lat": 34.883663,
    "lon": -79.699218,
    "hasAddress": true,
    "address1": "2 Main Street",
    "address2": " ",
    "city": "Hamlet",
    "state": "NC",
    "zip": "28345",
    "trains": [
      "40-20",
      "40-21",
      "41-19",
      "41-20",
      "41-21"
    ]
  },
  "HAR": {
    "name": "Harrisburg",
    "code": "HAR",
    "tz": "America/New_York",
    "lat": 40.26205,
    "lon": -76.878256,
    "hasAddress": true,
    "address1": "4th and Chestnut Streets",
    "address2": " ",
    "city": "Harrisburg",
    "state": "PA",
    "zip": "17101",
    "trains": [
      "620-21",
      "653-21",
      "655-21",
      "656-21",
      "657-21",
      "658-21"
    ]
  },
  "HAS": {
    "name": "Hastings",
    "code": "HAS",
    "tz": "America/Chicago",
    "lat": 40.584276,
    "lon": -98.387534,
    "hasAddress": true,
    "address1": "501 West First Street",
    "address2": " ",
    "city": "Hastings",
    "state": "NE",
    "zip": "68901",
    "trains": [
      "5-21",
      "5-20",
      "6-20",
      "6-21"
    ]
  },
  "HAV": {
    "name": "Havre",
    "code": "HAV",
    "tz": "America/Denver",
    "lat": 48.554465,
    "lon": -109.678352,
    "hasAddress": true,
    "address1": "235 Main Street",
    "address2": " ",
    "city": "Havre",
    "state": "MT",
    "zip": "59501",
    "trains": [
      "7-20",
      "7-21",
      "8-20",
      "8-21"
    ]
  },
  "HAY": {
    "name": "Hayward",
    "code": "HAY",
    "tz": "America/Los_Angeles",
    "lat": 37.665997,
    "lon": -122.099277,
    "hasAddress": true,
    "address1": "22555 Meekland Avenue",
    "address2": " ",
    "city": "Hayward",
    "state": "CA",
    "zip": "94541",
    "trains": [
      "538-21",
      "542-21",
      "543-21",
      "544-21",
      "547-21"
    ]
  },
  "HAZ": {
    "name": "Hazlehurst",
    "code": "HAZ",
    "tz": "America/Chicago",
    "lat": 31.86132,
    "lon": -90.394347,
    "hasAddress": true,
    "address1": "North Ragsdale Avenue and East Conway Street",
    "address2": " ",
    "city": "Hazlehurst",
    "state": "MS",
    "zip": "39083",
    "trains": [
      "58-21"
    ]
  },
  "HBG": {
    "name": "Hattiesburg",
    "code": "HBG",
    "tz": "America/Chicago",
    "lat": 31.326921,
    "lon": -89.286463,
    "hasAddress": true,
    "address1": "308 Newman Street",
    "address2": " ",
    "city": "Hattiesburg",
    "state": "MS",
    "zip": "39401",
    "trains": [
      "19-20",
      "19-21",
      "20-21"
    ]
  },
  "HEM": {
    "name": "Hermann",
    "code": "HEM",
    "tz": "America/Chicago",
    "lat": 38.707283,
    "lon": -91.432558,
    "hasAddress": true,
    "address1": "301 Wharf Street",
    "address2": " ",
    "city": "Hermann",
    "state": "MO",
    "zip": "65041",
    "trains": [
      "316-21",
      "318-21",
      "319-21"
    ]
  },
  "HER": {
    "name": "Helper",
    "code": "HER",
    "tz": "America/Denver",
    "lat": 39.684036,
    "lon": -110.853894,
    "hasAddress": true,
    "address1": "1 Depot Street",
    "address2": " ",
    "city": "Helper",
    "state": "UT",
    "zip": "84526",
    "trains": [
      "5-21",
      "5-20",
      "6-20",
      "6-21"
    ]
  },
  "HFD": {
    "name": "Hartford",
    "code": "HFD",
    "tz": "America/New_York",
    "lat": 41.768761,
    "lon": -72.681314,
    "hasAddress": true,
    "address1": "One Union Place",
    "address2": " ",
    "city": "Hartford",
    "state": "CT",
    "zip": "06103",
    "trains": [
      "55-21",
      "56-21",
      "125-21",
      "136-21",
      "148-21",
      "479-21",
      "494-21"
    ]
  },
  "HFY": {
    "name": "Harpers Ferry",
    "code": "HFY",
    "tz": "America/New_York",
    "lat": 39.324452,
    "lon": -77.731078,
    "hasAddress": true,
    "address1": "Potomac Street & Shenandoah Street",
    "address2": " ",
    "city": "Harpers Ferry",
    "state": "WV",
    "zip": "25425",
    "trains": [
      "40-20",
      "40-21",
      "41-19",
      "41-20",
      "41-21"
    ]
  },
  "HGD": {
    "name": "Huntingdon",
    "code": "HGD",
    "tz": "America/New_York",
    "lat": 40.483665,
    "lon": -78.01178,
    "hasAddress": true,
    "address1": "Fourth and Allegheny Streets",
    "address2": " ",
    "city": "Huntingdon",
    "state": "PA",
    "zip": "16652",
    "trains": []
  },
  "HHL": {
    "name": "Haverhill",
    "code": "HHL",
    "tz": "America/New_York",
    "lat": 42.773297,
    "lon": -71.086375,
    "hasAddress": true,
    "address1": "Washington Street at Railroad Square",
    "address2": " ",
    "city": "Haverhill",
    "state": "MA",
    "zip": "01832",
    "trains": [
      "687-21",
      "688-21"
    ]
  },
  "HIN": {
    "name": "Hinton",
    "code": "HIN",
    "tz": "America/New_York",
    "lat": 37.675037,
    "lon": -80.892232,
    "hasAddress": true,
    "address1": "100 Second Avenue",
    "address2": " ",
    "city": "Hinton",
    "state": "WV",
    "zip": "25951",
    "trains": [
      "50-20",
      "51-21"
    ]
  },
  "HLD": {
    "name": "Holdrege",
    "code": "HLD",
    "tz": "America/Chicago",
    "lat": 40.436013,
    "lon": -99.370077,
    "hasAddress": true,
    "address1": "200 East Avenue",
    "address2": " ",
    "city": "Holdrege",
    "state": "NE",
    "zip": "68949",
    "trains": [
      "5-21",
      "5-20",
      "6-20",
      "6-21"
    ]
  },
  "HLK": {
    "name": "Holyoke",
    "code": "HLK",
    "tz": "America/New_York",
    "lat": 42.204156,
    "lon": -72.602309,
    "hasAddress": true,
    "address1": "74 Main Street",
    "address2": " ",
    "city": "Holyoke",
    "state": "MA",
    "zip": "01041",
    "trains": [
      "55-21",
      "56-21",
      "479-21",
      "494-21"
    ]
  },
  "HMD": {
    "name": "Hammond",
    "code": "HMD",
    "tz": "America/Chicago",
    "lat": 30.50718,
    "lon": -90.462169,
    "hasAddress": true,
    "address1": "404 N.W. Railroad Avenue",
    "address2": " ",
    "city": "Hammond",
    "state": "LA",
    "zip": "70401",
    "trains": [
      "58-21"
    ]
  },
  "HMI": {
    "name": "Hammond/Whiting",
    "code": "HMI",
    "tz": "America/Chicago",
    "lat": 41.691155,
    "lon": -87.506511,
    "hasAddress": true,
    "address1": "1135 North Calumet Avenue",
    "address2": " ",
    "city": "Hammond",
    "state": "IN",
    "zip": "46320",
    "trains": [
      "355-21"
    ]
  },
  "HMW": {
    "name": "Homewood",
    "code": "HMW",
    "tz": "America/Chicago",
    "lat": 41.562446,
    "lon": -87.668685,
    "hasAddress": true,
    "address1": "18015 Park Avenue",
    "address2": " ",
    "city": "Homewood",
    "state": "IL",
    "zip": "60430",
    "trains": [
      "58-21",
      "392-21",
      "393-21"
    ]
  },
  "HNF": {
    "name": "Hanford",
    "code": "HNF",
    "tz": "America/Los_Angeles",
    "lat": 36.326078,
    "lon": -119.651816,
    "hasAddress": true,
    "address1": "200 Santa Fe Avenue #A",
    "address2": " ",
    "city": "Hanford",
    "state": "CA",
    "zip": "93230",
    "trains": [
      "714-21",
      "715-21",
      "716-21",
      "717-21",
      "718-21",
      "719-21"
    ]
  },
  "HOL": {
    "name": "Hollywood",
    "code": "HOL",
    "tz": "America/New_York",
    "lat": 26.011641,
    "lon": -80.167884,
    "hasAddress": true,
    "address1": "3001 Hollywood Boulevard",
    "address2": " ",
    "city": "Hollywood",
    "state": "FL",
    "zip": "33021",
    "trains": [
      "40-20",
      "40-21",
      "41-19",
      "41-20",
      "41-21",
      "97-20",
      "97-21",
      "98-21"
    ]
  },
  "HOM": {
    "name": "Holland",
    "code": "HOM",
    "tz": "America/Detroit",
    "lat": 42.791096,
    "lon": -86.096553,
    "hasAddress": true,
    "address1": "171 Lincoln Avenue",
    "address2": " ",
    "city": "Holland",
    "state": "MI",
    "zip": "49423",
    "trains": [
      "370-21"
    ]
  },
  "HOP": {
    "name": "Hope",
    "code": "HOP",
    "tz": "America/Chicago",
    "lat": 33.668913,
    "lon": -93.592247,
    "hasAddress": true,
    "address1": "100 East Division Street",
    "address2": " ",
    "city": "Hope",
    "state": "AR",
    "zip": "71801",
    "trains": [
      "21-21",
      "22-21",
      "1021-20"
    ]
  },
  "HOS": {
    "name": "Houston",
    "code": "HOS",
    "tz": "America/Chicago",
    "lat": 29.767245,
    "lon": -95.367526,
    "hasAddress": true,
    "address1": "902 Washington Avenue",
    "address2": " ",
    "city": "Houston",
    "state": "TX",
    "zip": "77002",
    "trains": [
      "2-19"
    ]
  },
  "HPT": {
    "name": "High Point",
    "code": "HPT",
    "tz": "America/New_York",
    "lat": 35.957128,
    "lon": -80.006097,
    "hasAddress": true,
    "address1": "100 West High Avenue",
    "address2": " ",
    "city": "High Point",
    "state": "NC",
    "zip": "27260",
    "trains": [
      "19-20",
      "19-21",
      "20-21",
      "78-21",
      "79-21",
      "80-21"
    ]
  },
  "HTN": {
    "name": "Hammonton",
    "code": "HTN",
    "tz": "America/New_York",
    "lat": 39.631317,
    "lon": -74.79934,
    "hasAddress": true,
    "address1": "Egg Harbor Road & Line Street",
    "address2": " ",
    "city": "Hammonton",
    "state": "NJ",
    "zip": "08037",
    "trains": []
  },
  "HUD": {
    "name": "Hudson",
    "code": "HUD",
    "tz": "America/New_York",
    "lat": 42.253891,
    "lon": -73.797729,
    "hasAddress": true,
    "address1": "69 South Front Street",
    "address2": " ",
    "city": "Hudson",
    "state": "NY",
    "zip": "12534",
    "trains": [
      "64-21",
      "68-21",
      "239-21",
      "241-21",
      "283-21",
      "291-21"
    ]
  },
  "HUN": {
    "name": "Huntington",
    "code": "HUN",
    "tz": "America/New_York",
    "lat": 38.41582,
    "lon": -82.439735,
    "hasAddress": true,
    "address1": "1050 8th Avenue",
    "address2": " ",
    "city": "Huntington",
    "state": "WV",
    "zip": "25701",
    "trains": [
      "50-20",
      "51-21"
    ]
  },
  "HUT": {
    "name": "Hutchinson",
    "code": "HUT",
    "tz": "America/Chicago",
    "lat": 38.055712,
    "lon": -97.931522,
    "hasAddress": true,
    "address1": "North Walnut Street & East 3rd Avenue",
    "address2": " ",
    "city": "Hutchinson",
    "state": "KS",
    "zip": "67501",
    "trains": [
      "3-20",
      "3-21",
      "4-20",
      "4-21"
    ]
  },
  "IDP": {
    "name": "Independence",
    "code": "IDP",
    "tz": "America/Chicago",
    "lat": 39.086917,
    "lon": -94.429711,
    "hasAddress": true,
    "address1": "600 South Grand Avenue",
    "address2": " ",
    "city": "Independence",
    "state": "MO",
    "zip": "64050",
    "trains": [
      "316-21",
      "318-21",
      "319-21"
    ]
  },
  "IND": {
    "name": "Indianapolis",
    "code": "IND",
    "tz": "America/Indiana/Indianapolis",
    "lat": 39.761984,
    "lon": -86.160423,
    "hasAddress": true,
    "address1": "350 South Illinois Street",
    "address2": " ",
    "city": "Indianapolis",
    "state": "IN",
    "zip": "46225",
    "trains": [
      "50-20",
      "51-21"
    ]
  },
  "IRV": {
    "name": "Irvine",
    "code": "IRV",
    "tz": "America/Los_Angeles",
    "lat": 33.656771,
    "lon": -117.733695,
    "hasAddress": true,
    "address1": "15215 Barranca Parkway",
    "address2": " ",
    "city": "Irvine",
    "state": "CA",
    "zip": "92618",
    "trains": [
      "580-21",
      "582-21",
      "587-21",
      "779-21",
      "784-21",
      "785-21",
      "790-21",
      "794-21"
    ]
  },
  "JAN": {
    "name": "Jackson",
    "code": "JAN",
    "tz": "America/Chicago",
    "lat": 32.300808,
    "lon": -90.190936,
    "hasAddress": true,
    "address1": "300 West Capitol Street",
    "address2": " ",
    "city": "Jackson",
    "state": "MS",
    "zip": "39201",
    "trains": [
      "58-21"
    ]
  },
  "JAX": {
    "name": "Jacksonville",
    "code": "JAX",
    "tz": "America/New_York",
    "lat": 30.365601,
    "lon": -81.723893,
    "hasAddress": true,
    "address1": "3570 Clifford Lane",
    "address2": " ",
    "city": "Jacksonville",
    "state": "FL",
    "zip": "32209",
    "trains": [
      "40-20",
      "40-21",
      "41-19",
      "41-20",
      "41-21",
      "97-20",
      "97-21",
      "98-21"
    ]
  },
  "JEF": {
    "name": "Jefferson City",
    "code": "JEF",
    "tz": "America/Chicago",
    "lat": 38.57887,
    "lon": -92.169906,
    "hasAddress": true,
    "address1": "101 Jefferson Street",
    "address2": " ",
    "city": "Jefferson City",
    "state": "MO",
    "zip": "65101",
    "trains": [
      "316-21",
      "318-21",
      "319-21"
    ]
  },
  "JOL": {
    "name": "Joliet",
    "code": "JOL",
    "tz": "America/Chicago",
    "lat": 41.524647,
    "lon": -88.078731,
    "hasAddress": true,
    "address1": "90 East Jefferson Street",
    "address2": " ",
    "city": "Joliet",
    "state": "IL",
    "zip": "60432",
    "trains": [
      "21-21",
      "22-21",
      "305-21",
      "306-21",
      "307-21",
      "318-21",
      "319-21",
      "1021-20"
    ]
  },
  "JSP": {
    "name": "Jesup",
    "code": "JSP",
    "tz": "America/New_York",
    "lat": 31.605589,
    "lon": -81.882173,
    "hasAddress": true,
    "address1": "176 Northwest Broad Street",
    "address2": " ",
    "city": "Jesup",
    "state": "GA",
    "zip": "31545",
    "trains": [
      "97-20",
      "97-21",
      "98-21"
    ]
  },
  "JST": {
    "name": "Johnstown",
    "code": "JST",
    "tz": "America/New_York",
    "lat": 40.329689,
    "lon": -78.921996,
    "hasAddress": true,
    "address1": "47 Walnut Street",
    "address2": " ",
    "city": "Johnstown",
    "state": "PA",
    "zip": "15901",
    "trains": []
  },
  "JXN": {
    "name": "Jackson",
    "code": "JXN",
    "tz": "America/Detroit",
    "lat": 42.248113,
    "lon": -84.39967,
    "hasAddress": true,
    "address1": "501 East Michigan Avenue",
    "address2": " ",
    "city": "Jackson",
    "state": "MI",
    "zip": "49201",
    "trains": [
      "352-21",
      "354-21",
      "355-21"
    ]
  },
  "KAL": {
    "name": "Kalamazoo",
    "code": "KAL",
    "tz": "America/Detroit",
    "lat": 42.295255,
    "lon": -85.584018,
    "hasAddress": true,
    "address1": "459 North Burdick Street",
    "address2": " ",
    "city": "Kalamazoo",
    "state": "MI",
    "zip": "49007",
    "trains": [
      "352-21",
      "354-21",
      "355-21",
      "364-21"
    ]
  },
  "KAN": {
    "name": "Kannapolis",
    "code": "KAN",
    "tz": "America/New_York",
    "lat": 35.496172,
    "lon": -80.624928,
    "hasAddress": true,
    "address1": "201 South Main Street",
    "address2": " ",
    "city": "Kannapolis",
    "state": "NC",
    "zip": "28081",
    "trains": [
      "76-21",
      "79-21",
      "80-21"
    ]
  },
  "KCY": {
    "name": "Kansas City",
    "code": "KCY",
    "tz": "America/Chicago",
    "lat": 39.084576,
    "lon": -94.585129,
    "hasAddress": true,
    "address1": "30 West Pershing Road",
    "address2": " ",
    "city": "Kansas City",
    "state": "MO",
    "zip": "64108",
    "trains": [
      "3-20",
      "3-21",
      "4-20",
      "4-21",
      "316-21",
      "318-21",
      "319-21"
    ]
  },
  "KEE": {
    "name": "Kewanee",
    "code": "KEE",
    "tz": "America/Chicago",
    "lat": 41.245765,
    "lon": -89.927544,
    "hasAddress": true,
    "address1": "210 West Third Street",
    "address2": " ",
    "city": "Kewanee",
    "state": "IL",
    "zip": "61443",
    "trains": [
      "382-21",
      "383-21"
    ]
  },
  "KEL": {
    "name": "Kelso",
    "code": "KEL",
    "tz": "America/Los_Angeles",
    "lat": 46.142264,
    "lon": -122.913016,
    "hasAddress": true,
    "address1": "501 South First Avenue",
    "address2": " ",
    "city": "Kelso",
    "state": "WA",
    "zip": "98626",
    "trains": [
      "11-20",
      "11-21",
      "14-20",
      "14-21",
      "506-21",
      "507-21",
      "508-21",
      "509-21",
      "518-21"
    ]
  },
  "KFS": {
    "name": "Klamath Falls",
    "code": "KFS",
    "tz": "America/Los_Angeles",
    "lat": 42.225509,
    "lon": -121.771952,
    "hasAddress": true,
    "address1": "1600 Oak Avenue",
    "address2": " ",
    "city": "Klamath Falls",
    "state": "OR",
    "zip": "97601",
    "trains": [
      "11-20",
      "11-21",
      "14-20",
      "14-21"
    ]
  },
  "KIN": {
    "name": "Kingston",
    "code": "KIN",
    "tz": "America/New_York",
    "lat": 41.483959,
    "lon": -71.560597,
    "hasAddress": true,
    "address1": "1 Railroad Avenue",
    "address2": " ",
    "city": "West Kingston",
    "state": "RI",
    "zip": "02892",
    "trains": [
      "65-21",
      "66-21",
      "93-21",
      "94-21",
      "137-21",
      "171-21",
      "175-21",
      "176-21",
      "177-21",
      "178-21",
      "179-21"
    ]
  },
  "KIS": {
    "name": "Kissimmee",
    "code": "KIS",
    "tz": "America/New_York",
    "lat": 28.293835,
    "lon": -81.404234,
    "hasAddress": true,
    "address1": "111 East Dakin Avenue",
    "address2": " ",
    "city": "Kissimmee",
    "state": "FL",
    "zip": "34741",
    "trains": [
      "40-20",
      "40-21",
      "41-19",
      "41-20",
      "41-21",
      "97-20",
      "97-21",
      "98-21"
    ]
  },
  "KKI": {
    "name": "Kankakee",
    "code": "KKI",
    "tz": "America/Chicago",
    "lat": 41.119259,
    "lon": -87.86543,
    "hasAddress": true,
    "address1": "199 South East Avenue",
    "address2": " ",
    "city": "Kankakee",
    "state": "IL",
    "zip": "60901",
    "trains": [
      "58-21",
      "392-21",
      "393-21"
    ]
  },
  "KNG": {
    "name": "Kingman",
    "code": "KNG",
    "tz": "America/Phoenix",
    "lat": 35.188279,
    "lon": -114.052816,
    "hasAddress": true,
    "address1": "402 Andy Devine",
    "address2": " ",
    "city": "Kingman",
    "state": "AZ",
    "zip": "86401",
    "trains": [
      "3-20",
      "3-21",
      "4-20",
      "4-21"
    ]
  },
  "KTR": {
    "name": "Kingstree",
    "code": "KTR",
    "tz": "America/New_York",
    "lat": 33.663882,
    "lon": -79.829026,
    "hasAddress": true,
    "address1": "101 East Main St.",
    "address2": " ",
    "city": "Kingstree",
    "state": "SC",
    "zip": "29556",
    "trains": [
      "89-21",
      "90-21",
      "97-20",
      "97-21",
      "98-21"
    ]
  },
  "KWD": {
    "name": "Kirkwood",
    "code": "KWD",
    "tz": "America/Chicago",
    "lat": 38.581067,
    "lon": -90.406761,
    "hasAddress": true,
    "address1": "110 West Argonne Drive",
    "address2": " ",
    "city": "Kirkwood",
    "state": "MO",
    "zip": "63122",
    "trains": [
      "316-21",
      "318-21",
      "319-21"
    ]
  },
  "LAB": {
    "name": "Latrobe",
    "code": "LAB",
    "tz": "America/New_York",
    "lat": 40.317405,
    "lon": -79.385083,
    "hasAddress": true,
    "address1": "329 McKinley Avenue",
    "address2": " ",
    "city": "Latrobe",
    "state": "PA",
    "zip": "15650",
    "trains": []
  },
  "LAF": {
    "name": "Lafayette",
    "code": "LAF",
    "tz": "America/Indiana/Indianapolis",
    "lat": 40.419347,
    "lon": -86.895901,
    "hasAddress": true,
    "address1": "200 North Second Street",
    "address2": " ",
    "city": "Lafayette",
    "state": "IN",
    "zip": "47901",
    "trains": [
      "50-20",
      "51-21"
    ]
  },
  "LAG": {
    "name": "La Grange Road",
    "code": "LAG",
    "tz": "America/Chicago",
    "lat": 41.815634,
    "lon": -87.871545,
    "hasAddress": true,
    "address1": "25 West Burlington Avenue",
    "address2": " ",
    "city": "La Grange",
    "state": "IL",
    "zip": "60525",
    "trains": [
      "382-21",
      "383-21"
    ]
  },
  "LAJ": {
    "name": "La Junta",
    "code": "LAJ",
    "tz": "America/Denver",
    "lat": 37.988249,
    "lon": -103.543576,
    "hasAddress": true,
    "address1": "1 West First Street",
    "address2": " ",
    "city": "La Junta",
    "state": "CO",
    "zip": "81050",
    "trains": [
      "3-20",
      "3-21",
      "4-20",
      "4-21"
    ]
  },
  "LAK": {
    "name": "Lakeland",
    "code": "LAK",
    "tz": "America/New_York",
    "lat": 28.045603,
    "lon": -81.951874,
    "hasAddress": true,
    "address1": "600 East  Main Street",
    "address2": " ",
    "city": "Lakeland",
    "state": "FL",
    "zip": "33801",
    "trains": [
      "40-20",
      "40-21",
      "41-19",
      "41-20",
      "41-21"
    ]
  },
  "LAP": {
    "name": "La Plata",
    "code": "LAP",
    "tz": "America/Chicago",
    "lat": 40.02922,
    "lon": -92.493384,
    "hasAddress": true,
    "address1": "535 North Owensby Street",
    "address2": " ",
    "city": "La Plata",
    "state": "MO",
    "zip": "63549",
    "trains": [
      "3-20",
      "3-21",
      "4-20",
      "4-21"
    ]
  },
  "LAU": {
    "name": "Laurel",
    "code": "LAU",
    "tz": "America/Chicago",
    "lat": 31.692168,
    "lon": -89.127933,
    "hasAddress": true,
    "address1": "230 North Maple Street",
    "address2": " ",
    "city": "Laurel",
    "state": "MS",
    "zip": "39440",
    "trains": [
      "19-20",
      "19-21",
      "20-21"
    ]
  },
  "LAX": {
    "name": "Los Angeles Union",
    "code": "LAX",
    "tz": "America/Los_Angeles",
    "lat": 34.056177,
    "lon": -118.236778,
    "hasAddress": true,
    "address1": "800 North Alameda Street",
    "address2": " ",
    "city": "Los Angeles",
    "state": "CA",
    "zip": "90012",
    "trains": [
      "2-19",
      "3-20",
      "3-21",
      "4-20",
      "4-21",
      "11-20",
      "11-21",
      "14-20",
      "14-21",
      "580-21",
      "582-21",
      "587-21",
      "779-21",
      "784-21",
      "785-21",
      "790-21",
      "794-21"
    ]
  },
  "LCH": {
    "name": "Lake Charles",
    "code": "LCH",
    "tz": "America/Chicago",
    "lat": 30.238126,
    "lon": -93.217037,
    "hasAddress": true,
    "address1": "100 Ryan Street",
    "address2": " ",
    "city": "Lake Charles",
    "state": "LA",
    "zip": "70601",
    "trains": [
      "2-19"
    ]
  },
  "LCN": {
    "name": "Lincoln",
    "code": "LCN",
    "tz": "America/Chicago",
    "lat": 40.148199,
    "lon": -89.363051,
    "hasAddress": true,
    "address1": "103 North Chicago Street",
    "address2": " ",
    "city": "Lincoln",
    "state": "IL",
    "zip": "62656",
    "trains": [
      "21-21",
      "22-21",
      "305-21",
      "306-21",
      "307-21",
      "318-21",
      "319-21",
      "1021-20"
    ]
  },
  "LDB": {
    "name": "Lordsburg",
    "code": "LDB",
    "tz": "America/Denver",
    "lat": 32.35007,
    "lon": -108.707025,
    "hasAddress": true,
    "address1": "Center Street and East Motel Drive",
    "address2": " ",
    "city": "Lordsburg",
    "state": "NM",
    "zip": "88045",
    "trains": [
      "2-19"
    ]
  },
  "LDW": {
    "name": "Somerdale",
    "code": "LDW",
    "tz": "America/New_York",
    "lat": 39.83383,
    "lon": -75.000759,
    "hasAddress": true,
    "address1": "Station Avenue & White Horse Road West",
    "address2": " ",
    "city": "Somerdale",
    "state": "NJ",
    "zip": "08083",
    "trains": []
  },
  "LEE": {
    "name": "Lee's Summit",
    "code": "LEE",
    "tz": "America/Chicago",
    "lat": 38.912623,
    "lon": -94.377972,
    "hasAddress": true,
    "address1": "217 SW Main Street",
    "address2": " ",
    "city": "Lee's Summit",
    "state": "MO",
    "zip": "64063",
    "trains": [
      "316-21",
      "318-21",
      "319-21"
    ]
  },
  "LEW": {
    "name": "Lewistown",
    "code": "LEW",
    "tz": "America/New_York",
    "lat": 40.588309,
    "lon": -77.580047,
    "hasAddress": true,
    "address1": "150 Helen Street",
    "address2": " ",
    "city": "Lewistown",
    "state": "PA",
    "zip": "17044",
    "trains": []
  },
  "LEX": {
    "name": "Lexington",
    "code": "LEX",
    "tz": "America/New_York",
    "lat": 35.820856,
    "lon": -80.251565,
    "hasAddress": true,
    "address1": "29 South Railroad Street",
    "address2": " ",
    "city": "Lexington",
    "state": "NC",
    "zip": "27292",
    "trains": []
  },
  "LFT": {
    "name": "Lafayette",
    "code": "LFT",
    "tz": "America/Chicago",
    "lat": 30.226548,
    "lon": -92.014519,
    "hasAddress": true,
    "address1": "100 Lee Avenue",
    "address2": " ",
    "city": "Lafayette",
    "state": "LA",
    "zip": "70501",
    "trains": [
      "2-19"
    ]
  },
  "LIB": {
    "name": "Libby",
    "code": "LIB",
    "tz": "America/Denver",
    "lat": 48.394842,
    "lon": -115.54889,
    "hasAddress": true,
    "address1": "100 Mineral Avenue",
    "address2": " ",
    "city": "Libby",
    "state": "MT",
    "zip": "59923",
    "trains": [
      "7-20",
      "7-21",
      "8-20",
      "8-21"
    ]
  },
  "LKL": {
    "name": "Lakeland",
    "code": "LKL",
    "tz": "America/New_York",
    "lat": 28.045603,
    "lon": -81.951874,
    "hasAddress": true,
    "address1": "600 East Main Street",
    "address2": " ",
    "city": "Lakeland",
    "state": "FL",
    "zip": "33801",
    "trains": [
      "40-20",
      "40-21",
      "41-19",
      "41-20",
      "41-21"
    ]
  },